OBJECTID,UID,LONGITUDE,LATITUDE,FACNAME,FACTYPE,ADDRESS_1,ADDRESS_2,CITY,STATE,ZIP,AREACODE,PHONE,CONTACT,TITLE,FIPS,NAME,TYPE,METHOD,PERMIT_NO_
1,081-011D(MSWL),-82.42973488,33.08876895,Jefferson County CR 138 MSWL,28.00000000,C.r. 138 W. Of Us Hwy 1,,Louisville,Georgia,30434,912.00000000,625-3332,,,13163,Jefferson,MSWL,GPS - dnr,
2,106-016D(MSWL),-84.85248832,32.48669442,"Columbus, Pine Grove MSWL",28.00000000,"Schatulga Road, Off Sr 22",,Columbus,Georgia,31993,706.00000000,571-4878,,,13215,Muscogee,MSWL,GPS - dnr,
3,6020190,-82.85520000,31.30897000,Pearson Elementary School,30.00000000,1001 King Street,,Pearson,Georgia,,0.00000000,,,,13003,Atkinson,Elementary School,Geocode,
4,6031050,-82.46249000,31.54437000,Bacon County Primary School,30.00000000,115 West Eighth Street,,Alma,Georgia,,0.00000000,,,,13005,Bacon,Elementary School,Geocode,
5,6033050,-82.45507000,31.53823000,Bacon County Elementary School,30.00000000,523 East 16th Street,,Alma,Georgia,,0.00000000,,,,13005,Bacon,Elementary School,Geocode,
6,6072050,-83.71638000,33.93201000,Bethlehem Elementary School,30.00000000,54 Star Street West,,Bethlehem,Georgia,,0.00000000,,,,13013,Barrow,Elementary School,Geocode,
7,6072052,-83.71481000,33.98965000,Winder-Barrow Middle School,31.00000000,163 King Street,,Winder,Georgia,,0.00000000,,,,13013,Barrow,Middle School,Geocode,
8,6080177,-84.93605000,34.37015000,Adairsville Elementary School,30.00000000,122 King Street,,Adairsville,Georgia,,0.00000000,,,,13015,Bartow,Elementary School,Geocode,
9,6081052,-84.80185000,34.19683000,Cloverleaf Elementary School,30.00000000,71 Felton Road,,Cartersville,Georgia,,0.00000000,,,,13015,Bartow,Elementary School,Geocode,
10,6100194,-83.25984000,31.21277000,Berrien Middle School,31.00000000,800 Tifton Road,,Nashville,Georgia,,0.00000000,,,,13019,Berrien,Middle School,Geocode,
11,6105050,-83.25721000,31.20010000,Berrien Primary School,30.00000000,810 South Dogwood Drive,,Nashville,Georgia,,0.00000000,,,,13019,Berrien,Elementary School,Geocode,
12,6160199,-81.81729000,32.39756000,Langston Chapel Elementary School,30.00000000,156 Langston Chapel Road,,Statesboro,Georgia,,0.00000000,,,,13031,Bulloch,Elementary School,Geocode,
13,6160299,-81.81756000,32.39756000,Langston Chapel Middle School,31.00000000,150 Langston Chapel Road,,Statesboro,Georgia,,0.00000000,,,,13031,Bulloch,Middle School,Geocode,
14,6165050,-81.78479000,32.46773000,Mattie Lively Elementary School,30.00000000,204 Debbie Drive,,Statesboro,Georgia,,0.00000000,,,,13031,Bulloch,Elementary School,Geocode,
15,6170196,-81.76939000,32.97961000,S G A Elementary School,30.00000000,1265 Charles Perry Boulevard,,Sardis,Georgia,,0.00000000,,,,13033,Burke,Elementary School,Geocode,
16,6174050,-82.02481000,33.09272000,Blakeney Elementary School,30.00000000,518 College Street,,Waynesboro,Georgia,,0.00000000,,,,13033,Burke,Elementary School,Geocode,
17,6180290,-83.96961000,33.28497000,North Mulberry Elementary School,30.00000000,820 North Mulberry Street,,Jackson,Georgia,,0.00000000,,,,13035,Butts,Elementary School,Geocode,
18,6190179,-84.70832000,31.45211000,Calhoun County Elementary School,30.00000000,"699 Morgan Road, NE",,Arlington,Georgia,,0.00000000,,,,13037,Calhoun,Elementary School,Geocode,
19,6200395,-81.57061000,30.74930000,Saint Marys Middle School,31.00000000,2600 Osborne Road,,St. Marys,Georgia,,0.00000000,,,,13039,Camden,Middle School,Geocode,
20,6203050,-81.54755000,30.72610000,Saint Marys Elementary School,30.00000000,510 Osborne Street,,St. Marys,Georgia,,0.00000000,,,,13039,Camden,Elementary School,Geocode,
21,6220177,-85.06152000,33.53672000,Central Middle School,31.00000000,155 Whooping Creek Road,,Carrollton,Georgia,,0.00000000,,,,13045,Carroll,Middle School,Geocode,
22,6220180,-85.25028000,33.53959000,Bowdon Primary School,30.00000000,225 East College Street,,Bowdon,Georgia,,0.00000000,,,,13045,Carroll,Elementary School,Geocode,
23,6220198,-84.94109000,33.68908000,Bay Springs Middle School,31.00000000,122 Bay Springs Road,,Villa Rica,Georgia,,0.00000000,,,,13045,Carroll,Middle School,Geocode,
24,6220199,-84.92732000,33.73503000,Villa Rica Elementary,30.00000000,314 Peachtree Street,,Villa Rica,Georgia,,0.00000000,,,,13045,Carroll,Elementary School,Geocode,
25,6220477,-84.91791000,33.49881000,Whitesburg Elementary School,30.00000000,868 Main Street,,Whitesburg,Georgia,,0.00000000,,,,13045,Carroll,Elementary School,Geocode,
26,6222050,-85.25368000,33.52633000,Bowdon Elementary School,30.00000000,223 Kent Avenue,,Bowdon,Georgia,,0.00000000,,,,13045,Carroll,Elementary School,Geocode,
27,6223054,-84.91300000,33.72840000,Villa Rica Primary School,30.00000000,118 Glanton Street,,Villa Rica,Georgia,,0.00000000,,,,13045,Carroll,Elementary School,Geocode,
28,6250299,-81.24447000,32.00351000,Southwest Middle School,31.00000000,6030 Ogeechee Road,,Savannah,Georgia,,0.00000000,,,,13051,Chatham,Middle School,Geocode,
29,6250300,-81.24401000,32.00395000,Southwest Chatham Elementary,30.00000000,6020 Ogeechee Road,,Savannah,Georgia,,0.00000000,,,,13051,Chatham,Elementary School,Geocode,
30,6250400,-81.11290000,32.07349000,Oglethorpe Academy,32.00000000,707 Stiles Avenue,,Savannah,Georgia,,0.00000000,,,,13051,Chatham,Other School,Geocode,
31,6250499,-81.09150000,32.04628000,Savannah Arts Academy,32.00000000,500 Washington Avenue,,Savannah,Georgia,,0.00000000,,,,13051,Chatham,Other School,Geocode,
32,6251052,-81.12592000,32.08577000,Bartow Elementary School,30.00000000,1804 Stratford Street,,Savannah,Georgia,,0.00000000,,,,13051,Chatham,Elementary School,Geocode,
33,6251058,-81.10370000,32.01734000,Heard Elementary School,30.00000000,414 Lee Boulevard,,Savannah,Georgia,,0.00000000,,,,13051,Chatham,Elementary School,Geocode,
34,6251060,-80.98685000,32.00904000,Howard Elementary School,30.00000000,115 Wilmington Island Road,,Savannah,Georgia,,0.00000000,,,,13051,Chatham,Elementary School,Geocode,
35,6251064,-81.07160000,32.03138000,Myers Middle School,31.00000000,2316 Brevard Circle,,Savannah,Georgia,,0.00000000,,,,13051,Chatham,Middle School,Geocode,
36,6251070,-81.12765000,31.99145000,White Bluff Elementary School,30.00000000,9902 White Bluff Road,,Savannah,Georgia,,0.00000000,,,,13051,Chatham,Elementary School,Geocode,
37,6252062,-81.13879000,31.99167000,Largo-Tibet Elementary School,30.00000000,430 Tibet Avenue,,Savannah,Georgia,,0.00000000,,,,13051,Chatham,Elementary School,Geocode,
38,6252069,-81.05244000,32.02936000,Thunderbolt Elementary School,30.00000000,3313 Louis Street,,Thunderbolt,Georgia,,0.00000000,,,,13051,Chatham,Elementary School,Geocode,
39,6252070,-81.05077000,32.06749000,Whitney Elementary School,30.00000000,2 Laura Street,,Savannah,Georgia,,0.00000000,,,,13051,Chatham,Elementary School,Geocode,
40,6253054,-81.11674000,32.04976000,DeRenne Middle School,31.00000000,3609 Hopkins Street,,Savannah,Georgia,,0.00000000,,,,13051,Chatham,Middle School,Geocode,
41,6253060,-81.06483000,31.97894000,Isle of Hope Elementary School,30.00000000,100 Parkersburg Road,,Savannah,Georgia,,0.00000000,,,,13051,Chatham,Elementary School,Geocode,
42,6253062,-81.08143000,32.02380000,Low Elementary School,30.00000000,15 Blue Ridge Avenue,,Savannah,Georgia,,0.00000000,,,,13051,Chatham,Elementary School,Geocode,
43,6253064,-81.24934000,32.12027000,Pooler Elementary School,30.00000000,308 Holly Avenue,,Pooler,Georgia,,0.00000000,,,,13051,Chatham,Elementary School,Geocode,
44,6254052,-81.30113000,32.12834000,Bloomingdale Elementary School,30.00000000,101 East Main Street,,Bloomingdale,Georgia,,0.00000000,,,,13051,Chatham,Elementary School,Geocode,
45,6254054,-81.09859000,32.04657000,Ellis Elementary School,30.00000000,220 East 49th Street,,Savannah,Georgia,,0.00000000,,,,13051,Chatham,Elementary School,Geocode,
46,6254056,-81.12247000,32.03562000,Haven Elementary School,30.00000000,5111 Dillion Avenue,,Savannah,Georgia,,0.00000000,,,,13051,Chatham,Elementary School,Geocode,
47,6254058,-81.10542000,31.97919000,Hesse Elementary School,30.00000000,9116 Whitfield Avenue,,Savannah,Georgia,,0.00000000,,,,13051,Chatham,Elementary School,Geocode,
48,6254068,-81.15723000,32.14244000,Port Wentworth Elementary School,30.00000000,507 South Coastal Highway,,Port Wentworth,Georgia,,0.00000000,,,,13051,Chatham,Elementary School,Geocode,
49,6254070,-81.14381000,31.97375000,Windsor Forest Elementary School,30.00000000,414 Briarcliff Road,,Savannah,Georgia,,0.00000000,,,,13051,Chatham,Elementary School,Geocode,
50,6255050,-81.13048000,31.99997000,Bartlett Middle School,31.00000000,207 Montgomery Crossroads,,Savannah,Georgia,,0.00000000,,,,13051,Chatham,Middle School,Geocode,
51,6255052,-81.12462000,32.06391000,Butler Elementary School,30.00000000,1909 Cynthia Street,,Savannah,Georgia,,0.00000000,,,,13051,Chatham,Elementary School,Geocode,
52,6255062,-81.15867000,32.11340000,Mercer Middle School,31.00000000,201 Rommel Avenue,,Garden City,Georgia,,0.00000000,,,,13051,Chatham,Middle School,Geocode,
53,6255064,-81.11497000,32.03023000,Pulaski Elementary School,30.00000000,5330 Montgomery Street,,Savannah,Georgia,,0.00000000,,,,13051,Chatham,Elementary School,Geocode,
54,6255066,-81.10231000,32.03660000,Jacob G. Smith Elementary School,30.00000000,210 Lamara Drive,,Savannah,Georgia,,0.00000000,,,,13051,Chatham,Elementary School,Geocode,
55,6290178,-83.44760000,33.93674000,Timothy Elementary School,30.00000000,1900 Timothy Road,,Athens,Georgia,,0.00000000,,,,13059,Clarke,Elementary School,Geocode,
56,6290191,-83.50799000,33.95496000,Cleveland Road Elementary School,30.00000000,1700 Cleveland Road,,Bogart,Georgia,,0.00000000,,,,13059,Clarke,Elementary School,Geocode,
57,6290291,-83.35757000,33.97237000,Fourth Street Elementary School,30.00000000,715 Fourth Street,,Athens,Georgia,,0.00000000,,,,13059,Clarke,Elementary School,Geocode,
58,6290296,-83.47562000,33.99041000,Burney-Harris-Lyons Middle School,31.00000000,1600 Tallassee Road,,Athens,Georgia,,0.00000000,,,,13059,Clarke,Middle School,Geocode,
59,6290391,-83.31546000,33.89969000,Whit Davis Road Elementary School,30.00000000,1450 Whit Davis Road,,Athens,Georgia,,0.00000000,,,,13059,Clarke,Elementary School,Geocode,
60,6291058,-83.39987000,33.94669000,Clarke Middle School,31.00000000,1235 Baxter Street,,Athens,Georgia,,0.00000000,,,,13059,Clarke,Middle School,Geocode,
61,6291062,-83.43369000,33.98056000,Whitehead Road Elementary School,30.00000000,500 Whitehead Road,,Athens,Georgia,,0.00000000,,,,13059,Clarke,Elementary School,Geocode,
62,6292056,-83.33958000,33.91078000,Barnett Shoals Elementary School,30.00000000,3220 Barnett Shoals Road,,Athens,Georgia,,0.00000000,,,,13059,Clarke,Elementary School,Geocode,
63,6292062,-83.28992000,33.97147000,Winterville Elementary School,30.00000000,305 Cherokee Road,,Winterville,Georgia,,0.00000000,,,,13059,Clarke,Elementary School,Geocode,
64,6293056,-83.38189000,33.93172000,Barrow Elementary School,30.00000000,100 Pinecrest Drive,,Athens,Georgia,,0.00000000,,,,13059,Clarke,Elementary School,Geocode,
65,6293058,-83.36256000,33.98882000,Fowler Drive Elementary School,30.00000000,400 Fowler Drive,,Athens,Georgia,,0.00000000,,,,13059,Clarke,Elementary School,Geocode,
66,6294058,-83.32693000,33.93523000,Gaines Elementary School,30.00000000,280 Gaines School Road,,Athens,Georgia,,0.00000000,,,,13059,Clarke,Elementary School,Geocode,
67,6294060,-83.42068000,33.96225000,Oglethorpe Avenue Elementary School,30.00000000,1150 Oglethorpe Avenue,,Athens,Georgia,,0.00000000,,,,13059,Clarke,Elementary School,Geocode,
68,6295054,-83.40923000,33.94707000,Alps Road Elementary School,30.00000000,200 Alps Road,,Athens,Georgia,,0.00000000,,,,13059,Clarke,Elementary School,Geocode,
69,6295056,-83.39297000,33.96484000,Chase Street Elementary School,30.00000000,757 North Chase Street,,Athens,Georgia,,0.00000000,,,,13059,Clarke,Elementary School,Geocode,
70,6295058,-83.33634000,33.92834000,Hilsman Middle School,31.00000000,870 Gaines School Road,,Athens,Georgia,,0.00000000,,,,13059,Clarke,Middle School,Geocode,
71,6340295,-82.85091000,31.49018000,West Coffee Middle School,31.00000000,1303 South Peterson Avenue,,Douglas,Georgia,,0.00000000,,,,13069,Coffee,Middle School,Geocode,
72,6344550,-82.84550000,31.49760000,East Coffee Middle School,31.00000000,1020 South Gaskin Avenue,,Douglas,Georgia,,0.00000000,,,,13069,Coffee,Middle School,Geocode,
73,6353050,-83.79131000,31.18486000,Stringfellow Elementary School,30.00000000,"200 Fifth Avenue, SW",,Moultrie,Georgia,,0.00000000,,,,13071,Colquitt,Elementary School,Geocode,
74,6353052,-83.80054000,31.19058000,Gray Middle School,31.00000000,"812 11th Avenue, NW",,Moultrie,Georgia,,0.00000000,,,,13071,Colquitt,Middle School,Geocode,
75,6354050,-83.77529000,31.17050000,Cox Elementary School,30.00000000,"1003 12th Street, SE",,Moultrie,Georgia,,0.00000000,,,,13071,Colquitt,Elementary School,Geocode,
76,6360173,-82.15167000,33.49729000,Westmont Elementary School,30.00000000,4558 Oakley Pirkle Road,,Martinez,Georgia,,0.00000000,,,,13073,Columbia,Elementary School,Geocode,
77,6360176,-82.12731000,33.53645000,Evans Middle School,31.00000000,4318 Washington Road,,Evans,Georgia,,0.00000000,,,,13073,Columbia,Middle School,Geocode,
78,6360186,-82.15303000,33.53674000,Evans Elementary School,30.00000000,628 Gibbs Road,,Evans,Georgia,,0.00000000,,,,13073,Columbia,Elementary School,Geocode,
79,6360190,-82.15887000,33.48528000,Brookwood Elementary School,30.00000000,455 South Old Belair Road,,Grovetown,Georgia,,0.00000000,,,,13073,Columbia,Elementary School,Geocode,
80,6360192,-82.07116000,33.55396000,Stevens Creek Elementary School,30.00000000,3780 Evans to Lock Road,,Martinez,Georgia,,0.00000000,,,,13073,Columbia,Elementary School,Geocode,
81,6360193,-82.12008000,33.57503000,Riverside Middle School,31.00000000,1095 Fury's Ferry Road,,Evans,Georgia,,0.00000000,,,,13073,Columbia,Middle School,Geocode,
82,6360194,-82.12290000,33.57624000,Riverside Elementary School,30.00000000,4431 Hardy McManus Road,,Evans,Georgia,,0.00000000,,,,13073,Columbia,Elementary School,Geocode,
83,6360397,-82.27552000,33.49184000,Euchee Creek Elementary School,30.00000000,795 Louisville Road,,Grovetown,Georgia,,0.00000000,,,,13073,Columbia,Elementary School,Geocode,
84,6361050,-82.14315000,33.51583000,Bel Air Elementary School,30.00000000,325 North Belair Road,,Evans,Georgia,,0.00000000,,,,13073,Columbia,Elementary School,Geocode,
85,6362050,-82.23019000,33.51681000,Columbia Middle School,31.00000000,6000 Columbia Road,,Grovetown,Georgia,,0.00000000,,,,13073,Columbia,Middle School,Geocode,
86,6362052,-82.10578000,33.50766000,Martinez Elementary School,30.00000000,213 Flowing Wells Road,,Martinez,Georgia,,0.00000000,,,,13073,Columbia,Elementary School,Geocode,
87,6363052,-82.31863000,33.59114000,North Columbia Elementary School,30.00000000,2874 Ray Owens Road,,Appling,Georgia,,0.00000000,,,,13073,Columbia,Elementary School,Geocode,
88,6365050,-82.19501000,33.44762000,Grovetown Elementary School,30.00000000,300 Ford Avenue,,Grovetown,Georgia,,0.00000000,,,,13073,Columbia,Elementary School,Geocode,
89,6365052,-82.10264000,33.52502000,South Columbia Elementary School,30.00000000,325 McCormick Road,,Martinez,Georgia,,0.00000000,,,,13073,Columbia,Elementary School,Geocode,
90,6370196,-83.41660000,31.16633000,Cook Elementary School,30.00000000,1504 Patterson Street,,Adel,Georgia,,0.00000000,,,,13075,Cook,Elementary School,Geocode,
91,6380189,-84.69933000,33.39568000,White Oak Elementary School,30.00000000,770 Lora Smith Road,,Newnan,Georgia,,0.00000000,,,,13077,Coweta,Elementary School,Geocode,
92,6380195,-84.80295000,33.33814000,Jefferson Parkway Elementary School,30.00000000,154 Millard Farmer Boulevard,,Newnan,Georgia,,0.00000000,,,,13077,Coweta,Elementary School,Geocode,
93,6381050,-84.87431000,33.43803000,Arnco-Sargent Elementary School,30.00000000,2449 West Highway 16,,Newnan,Georgia,,0.00000000,,,,13077,Coweta,Elementary School,Geocode,
94,6381054,-84.81727000,33.37490000,Ruth Hill Elementary School,30.00000000,57 Sunset Lane,,Newnan,Georgia,,0.00000000,,,,13077,Coweta,Elementary School,Geocode,
95,6382050,-84.80000000,33.36731000,Atkinson Elementary School,30.00000000,14 Nimmons Street,,Newnan,Georgia,,0.00000000,,,,13077,Coweta,Elementary School,Geocode,
96,6382052,-84.58201000,33.23802000,Eastside Elementary School,30.00000000,1225 Eastside School Road,,Senoia,Georgia,,0.00000000,,,,13077,Coweta,Elementary School,Geocode,
97,6382056,-84.79496000,33.42342000,Northside Elementary School,30.00000000,720 Country Club Road,,Newnan,Georgia,,0.00000000,,,,13077,Coweta,Elementary School,Geocode,
98,6383052,-84.80520000,33.38382000,Elm Street Elementary School,30.00000000,46 Elm Street,,Newnan,Georgia,,0.00000000,,,,13077,Coweta,Elementary School,Geocode,
99,6385056,-84.89089000,33.38947000,Western Elementary School,30.00000000,1730 Welcome Road,,Newnan,Georgia,,0.00000000,,,,13077,Coweta,Elementary School,Geocode,
100,6400197,-83.76530000,31.95487000,Crisp County Middle School,31.00000000,1116 24th Avenue East,,Cordele,Georgia,,0.00000000,,,,13081,Crisp,Middle School,Geocode,
101,6401050,-83.76915000,31.98043000,Blackshear Trail Elementary School,30.00000000,1001 Blackshear Road,,Cordele,Georgia,,0.00000000,,,,13081,Crisp,Elementary School,Geocode,
102,6402052,-83.76794000,31.95489000,Southwestern Elementary School,30.00000000,1001 24th Avenue West,,Cordele,Georgia,,0.00000000,,,,13081,Crisp,Elementary School,Geocode,
103,6405050,-83.77086000,31.95491000,J. S. Pate Elementary School,30.00000000,802 24th Avenue East,,Cordele,Georgia,,0.00000000,,,,13081,Crisp,Elementary School,Geocode,
104,6430191,-84.57432000,30.89866000,Potter Street Elementary School,30.00000000,725 Potter Street,,Bainbridge,Georgia,,0.00000000,,,,13087,Decatur,Elementary School,Geocode,
105,6432050,-84.59184000,30.91612000,West Bainbridge Middle School,31.00000000,1417 Dothan Highway,,Bainbridge,Georgia,,0.00000000,,,,13087,Decatur,Middle School,Geocode,
106,6434052,-84.55782000,30.90571000,Jones-Wheat Elementary School,30.00000000,1400 East Broughton Street,,Bainbridge,Georgia,,0.00000000,,,,13087,Decatur,Elementary School,Geocode,
107,6435052,-84.58636000,30.91951000,West Bainbridge Elementary School,30.00000000,507 Martin Street,,Bainbridge,Georgia,,0.00000000,,,,13087,Decatur,Elementary School,Geocode,
108,6460190,-83.79844000,32.10198000,Dooly County Middle School,31.00000000,715 Third Street North,,Vienna,Georgia,,0.00000000,,,,13093,Dooly,Middle School,Geocode,
109,6470299,-84.19070000,31.54864000,Alice Coachman Elementary School,30.00000000,1425 West Oakridge Drive,,Albany,Georgia,,0.00000000,,,,13095,Dougherty,Elementary School,Geocode,
110,6471060,-84.13670000,31.55010000,Radium Springs Middle School,31.00000000,2600 Radium Springs Drive,,Albany,Georgia,,0.00000000,,,,13095,Dougherty,Middle School,Geocode,
111,6471062,-84.11520000,31.59267000,Sylvandale Elementary School,30.00000000,1520 Cordell Avenue,,Albany,Georgia,,0.00000000,,,,13095,Dougherty,Elementary School,Geocode,
112,6472050,-84.15591000,31.59019000,Albany Middle School,31.00000000,1000 North Jefferson Street,,Albany,Georgia,,0.00000000,,,,13095,Dougherty,Middle School,Geocode,
113,6472054,-84.11767000,31.57364000,Isabella Elementary School,30.00000000,300 Cason Street,,Albany,Georgia,,0.00000000,,,,13095,Dougherty,Elementary School,Geocode,
114,6472056,-84.19065000,31.58017000,Magnolia Elementary School,30.00000000,1700 Samford Drive,,Albany,Georgia,,0.00000000,,,,13095,Dougherty,Elementary School,Geocode,
115,6472058,-84.13349000,31.55125000,Morningside Elementary School,30.00000000,120 Sunset Boulevard,,Albany,Georgia,,0.00000000,,,,13095,Dougherty,Elementary School,Geocode,
116,6472062,-84.08286000,31.57337000,Sylvester Road Elementary School,30.00000000,2600 Trenton Lane,,Albany,Georgia,,0.00000000,,,,13095,Dougherty,Elementary School,Geocode,
117,6473052,-84.10171000,31.57018000,Dougherty Middle School,31.00000000,1800 Massey Drive,,Albany,Georgia,,0.00000000,,,,13095,Dougherty,Middle School,Geocode,
118,6473054,-84.12281000,31.58616000,Jackson Heights Elementary School,30.00000000,1305 East Second Street,,Albany,Georgia,,0.00000000,,,,13095,Dougherty,Elementary School,Geocode,
119,6473062,-84.10093000,31.57639000,Turner Elementary School,30.00000000,2001 Leonard Avenue,,Albany,Georgia,,0.00000000,,,,13095,Dougherty,Elementary School,Geocode,
120,6474056,-84.18732000,31.58594000,Merry Acres Middle School,31.00000000,1601 Florence Drive,,Albany,Georgia,,0.00000000,,,,13095,Dougherty,Middle School,Geocode,
121,6474058,-84.17889000,31.59149000,Palmyra Elementary School,30.00000000,1225 Fourth Avenue,,Albany,Georgia,,0.00000000,,,,13095,Dougherty,Elementary School,Geocode,
122,6474060,-84.19991000,31.60753000,Sherwood Elementary School,30.00000000,2200 Barnesdale Way,,Albany,Georgia,,0.00000000,,,,13095,Dougherty,Elementary School,Geocode,
123,6475054,-84.16474000,31.56606000,Lincoln Fundamental School,30.00000000,700 Corn Avenue,,Albany,Georgia,,0.00000000,,,,13095,Dougherty,Elementary School,Geocode,
124,6475058,-84.12861000,31.53226000,Radium Springs Elementary School,30.00000000,2400 Roxanna Road,,Albany,Georgia,,0.00000000,,,,13095,Dougherty,Elementary School,Geocode,
125,6475060,-84.16673000,31.55737000,Southside Middle School,31.00000000,1615 Newton Road,,Albany,Georgia,,0.00000000,,,,13095,Dougherty,Middle School,Geocode,
126,6475062,-84.20243000,31.56271000,West Town Elementary School,30.00000000,1113 University Avenue,,Albany,Georgia,,0.00000000,,,,13095,Dougherty,Elementary School,Geocode,
127,6490197,-84.94095000,31.37523000,Early County Middle School,31.00000000,413 Columbia Road,,Blakely,Georgia,,0.00000000,,,,13099,Early,Middle School,Geocode,
128,6510296,-81.22680000,32.34849000,Ebenezer Elementary School,30.00000000,1198 Ebenezer Road,,Rincon,Georgia,,0.00000000,,,,13103,Effingham,Elementary School,Geocode,
129,6510297,-81.33554000,32.18987000,South Effingham Middle School,31.00000000,1200 Noel C. Conaway Road,,Guyton,Georgia,,0.00000000,,,,13103,Effingham,Middle School,Geocode,
130,6520177,-82.85431000,34.11296000,Blackwell Elementary School,30.00000000,373 Campbell Street,,Elberton,Georgia,,0.00000000,,,,13105,Elbert,Elementary School,Geocode,
131,6543050,-81.91795000,32.16114000,Claxton Middle School,31.00000000,4 North College Street,,Claxton,Georgia,,0.00000000,,,,13109,Evans,Middle School,Geocode,
132,6570173,-85.18542000,34.21979000,McHenry Primary,30.00000000,"100 McHenry Drive, SW",,Rome,Georgia,,0.00000000,,,,13115,Floyd,Elementary School,Geocode,
133,6570188,-85.11297000,34.29548000,Model Elementary School,30.00000000,"3200 Calhoun Highway, NE",,Rome,Georgia,,0.00000000,,,,13115,Floyd,Elementary School,Geocode,
134,175-015,-83.73113500,34.70315500,White County Public Library-Helen Branch,17.00000000,90 Pete's Park Road,,Helen,Georgia,30545,706.00000000,878-2438,,,13311,White,Library,GPS,
135,175-018,-83.76433100,34.59827400,White County Public Library Cleveland Branch,17.00000000,60 Bell Street,,Cleveland,Georgia,30528,706.00000000,878-2438,,,13311,White,Library,GPS,
136,055-018,-83.85846100,34.22698100,Blackshear Place Library,17.00000000,2927 Atlanta Highway,,Gainesville,Georgia,30501,770.00000000,287-3654,,,13139,Hall,Library,GPS,
137,055-012,-83.89158200,34.40173200,Murrayville Library,17.00000000,4796 Thompson Bridge Road,,Gainesville,Georgia,30506,770.00000000,503-1055,,,13139,Hall,Library,GPS,
138,055-009,-83.77440000,34.47749500,Clermont Branch Library,17.00000000,117 King Street,,Clermont,Georgia,30527,770.00000000,983-3196,,,13139,Hall,Library,GPS,
139,055-006,-83.66421600,34.38933100,Lula Branch Library,17.00000000,Main Street,,Lula,Georgia,30554,770.00000000,869-7172,,,13139,Hall,Library,GPS,
140,055-015,-83.77700400,34.31401600,East Hall Library,17.00000000,2434 Old Cornelia Highway,,Gainesville,Georgia,30507,770.00000000,531-2500,,,13139,Hall,Library,GPS,
141,055-021,-83.82859300,34.30050600,Chestatee Regional Library,17.00000000,127 North Main Street,,Gainesville,Georgia,30505,770.00000000,532-3311,,,13139,Hall,Library,GPS,
142,175-009,-83.40464800,34.87995600,Rabun County Public Library,17.00000000,Highway 76,,Clayton,Georgia,30525,706.00000000,785-3731,,,13241,Rabun,Library,GPS,
143,175-003,-83.52302000,34.60703600,Clarkesville-Habersham County Public Library,17.00000000,174 East Green Street,Post Office Box 378,Clarkesville,Georgia,30523,706.00000000,754-4413,,,13137,Habersham,Library,GPS,
144,175-006,-83.52843400,34.51389800,Cornelia-Habersham County Library,17.00000000,201 North Main Street,,Cornelia,Georgia,30531,706.00000000,778-2635,,,13137,Habersham,Library,GPS,
145,175-012,-83.33069000,34.58076700,Toccoa-Stephens County Public Library,17.00000000,121 West Savannah Street,,Toccoa,Georgia,30577,706.00000000,886-6082,,,13257,Stephens,Library,GPS,
146,6570195,-85.17256000,34.35410000,Armuchee Elementary School,30.00000000,"5075 Martha Berry Highway, NW",,Rome,Georgia,,0.00000000,,,,13115,Floyd,Elementary School,Geocode,
147,6570273,-85.18077000,34.16880000,Pepperell Middle School,31.00000000,"200 Hughes Dairy Road, SE",,Lindale,Georgia,,0.00000000,,,,13115,Floyd,Middle School,Geocode,
148,6571050,-85.23106000,34.25998000,Alto Park Elementary School,30.00000000,"528 Burnett Ferry Road, SW",,Rome,Georgia,,0.00000000,,,,13115,Floyd,Elementary School,Geocode,
149,6572052,-85.23927000,34.28513000,Garden Lakes Elementary School,30.00000000,"2903 Garden Lakes Boulevard, NW",,Rome,Georgia,,0.00000000,,,,13115,Floyd,Elementary School,Geocode,
150,6572054,-85.14751000,34.17762000,Midway Primary,30.00000000,"5 Midway School Road, SE",,Silver Creek,Georgia,,0.00000000,,,,13115,Floyd,Elementary School,Geocode,
151,6573050,-85.33517000,34.10918000,Cave Spring Elementary School,30.00000000,13 Rome Street,,Cave Spring,Georgia,,0.00000000,,,,13115,Floyd,Elementary School,Geocode,
152,6582050,-83.99502000,34.29560000,Chestatee Elementary School,30.00000000,6945 Keith Bridge Road,,Gainesville,Georgia,,0.00000000,,,,13117,Forsyth,Elementary School,Geocode,
153,6630190,-81.50716000,31.25314000,Golden Isles Elementary School,30.00000000,1350 Cate Road,,Brunswick,Georgia,,0.00000000,,,,13127,Glynn,Elementary School,Geocode,
154,6630195,-81.38647000,31.21984000,Oglethorpe Point Elementary School,30.00000000,6200 Frederica Road,,St. Simons Isla,Georgia,,0.00000000,,,,13127,Glynn,Elementary School,Geocode,
155,6631052,-81.48106000,31.21208000,Altama Elementary School,30.00000000,5505 Altama Avenue,,Brunswick,Georgia,,0.00000000,,,,13127,Glynn,Elementary School,Geocode,
156,6631056,-81.39397000,31.13612000,St. Simons Elementary School,30.00000000,805 Ocean Boulevard,,St. Simons Isla,Georgia,,0.00000000,,,,13127,Glynn,Elementary School,Geocode,
157,6631554,-81.48824000,31.18517000,Jane Macon Middle School,31.00000000,3885 Altama Avenue,,Brunswick,Georgia,,0.00000000,,,,13127,Glynn,Middle School,Geocode,
158,6634052,-81.48784000,31.15624000,Burroughs-Molette Elementary School,30.00000000,1900 Lee Street,,Brunswick,Georgia,,0.00000000,,,,13127,Glynn,Elementary School,Geocode,
159,6634054,-81.49628000,31.16926000,Risley Middle School,31.00000000,2900 Albany Street,,Brunswick,Georgia,,0.00000000,,,,13127,Glynn,Middle School,Geocode,
160,6634952,-81.49039000,31.14449000,Glynn Middle School,31.00000000,901 George Street,,Brunswick,Georgia,,0.00000000,,,,13127,Glynn,Middle School,Geocode,
161,6650174,-84.22529000,30.87543000,Washington Middle School,31.00000000,1277 Bookerhill Boulevard,,Cairo,Georgia,,0.00000000,,,,13131,Grady,Middle School,Geocode,
162,6650185,-84.18606000,30.88171000,Eastside Elementary School,30.00000000,"1201 20th Street, NE",,Cairo,Georgia,,0.00000000,,,,13131,Grady,Elementary School,Geocode,
163,6651550,-84.20963000,30.88718000,Northside Elementary School,30.00000000,"985 First Street, NW",,Cairo,Georgia,,0.00000000,,,,13131,Grady,Elementary School,Geocode,
164,6652050,-84.20453000,30.88193000,Southside Elementary School,30.00000000,"491 Third Street, NE",,Cairo,Georgia,,0.00000000,,,,13131,Grady,Elementary School,Geocode,
165,6660383,-83.17768000,33.56527000,Greensboro Primary School,30.00000000,1441 South Walnut Street,,Greensboro,Georgia,,0.00000000,,,,13133,Greene,Elementary School,Geocode,
166,6690100,-83.89129000,34.19458000,C. W. Davis Middle School,31.00000000,4335 Atlanta Highway,,Flowery Branch,Georgia,,0.00000000,,,,13139,Hall,Middle School,Geocode,
167,6690192,-83.88805000,34.14706000,Spout Springs Elementary School,30.00000000,6640 Spout Springs Road,,Flowery Branch,Georgia,,0.00000000,,,,13139,Hall,Elementary School,Geocode,
168,6690294,-83.90860000,34.21914000,West Hall Middle School,31.00000000,5470 McEver Road,,Oakwood,Georgia,,0.00000000,,,,13139,Hall,Middle School,Geocode,
169,6692056,-83.88156000,34.22435000,Oakwood Elementary School,30.00000000,4500 Allen Street,,Oakwood,Georgia,,0.00000000,,,,13139,Hall,Elementary School,Geocode,
170,6694050,-83.84525000,34.17986000,Chestnut Mountain Elementary School,30.00000000,4670 Winder Highway,,Flowery Branch,Georgia,,0.00000000,,,,13139,Hall,Elementary School,Geocode,
171,6720188,-84.86998000,32.79396000,Park Elementary School,30.00000000,13185 Highway 27,,Hamilton,Georgia,,0.00000000,,,,13145,Harris,Elementary School,Geocode,
172,6720190,-84.82043000,32.62477000,Pine Ridge Elementary School,30.00000000,15750 Highway 315,,Ellerslie,Georgia,,0.00000000,,,,13145,Harris,Elementary School,Geocode,
173,6735050,-82.92822000,34.35306000,Hartwell Elementary School,30.00000000,147 South College Avenue,,Hartwell,Georgia,,0.00000000,,,,13147,Hart,Elementary School,Geocode,
174,6741050,-85.05099000,33.25506000,Centralhatchee Elementary School,30.00000000,14785 U.S. Highway 27,,Franklin,Georgia,,0.00000000,,,,13149,Heard,Elementary School,Geocode,
175,6760300,-83.65599000,32.59561000,Houston County Career and Technology Center,32.00000000,1311 Corder Road,,Warner Robins,Georgia,,0.00000000,,,,13153,Houston,Other School,Geocode,
176,6780193,-83.56944000,34.11172000,Regional Evening Alternative School,32.00000000,441 Gordon Street,,Jefferson,Georgia,,0.00000000,,,,13157,Jackson,Other School,Geocode,
177,6780197,-83.45011000,34.14902000,East Jackson Middle School,31.00000000,1880 Hoods Mill Road,,Commerce,Georgia,,0.00000000,,,,13157,Jackson,Middle School,Geocode,
178,6780280,-83.82757000,34.16333000,Jackson County Elementary School,30.00000000,4825 Highway 53,,Braselton,Georgia,,0.00000000,,,,13157,Jackson,Elementary School,Geocode,
179,6784050,-83.46500000,34.00782000,South Jackson Elementary School,30.00000000,8144 Jefferson Road,,Athens,Georgia,,0.00000000,,,,13157,Jackson,Elementary School,Geocode,
180,6811550,-82.41013000,33.00644000,Louisville Academy,32.00000000,901 Mimosa Drive,,Louisville,Georgia,,0.00000000,,,,13163,Jefferson,Other School,Geocode,
181,6830197,-82.73338000,32.72805000,Johnson County Elementary School,30.00000000,601 West Elm Street,,Wrightsville,Georgia,,0.00000000,,,,13167,Johnson,Elementary School,Geocode,
182,6850190,-84.17023000,33.04644000,Lamar County Primary/Elementary School,30.00000000,154 Burnette Road,,Barnesville,Georgia,,0.00000000,,,,13171,Lamar,Elementary School,Geocode,
183,6850199,-84.16991000,33.04643000,Lamar County Middle School,31.00000000,100 Burnette Road,,Barnesville,Georgia,,0.00000000,,,,13171,Lamar,Middle School,Geocode,
184,6863050,-83.07503000,31.04018000,Lanier County Elementary School,30.00000000,242 Valdosta Road,,Lakeland,Georgia,,0.00000000,,,,13173,Lanier,Elementary School,Geocode,
185,6880293,-84.15263000,31.73681000,Lee County Middle School,31.00000000,185 Firetower Road,,Leesburg,Georgia,,0.00000000,,,,13177,Lee,Middle School,Geocode,
186,6891050,-81.60033000,31.83755000,Jordye Bacon Elementary School,30.00000000,100 Deen Avenue,,Hinesville,Georgia,,0.00000000,,,,13179,Liberty,Elementary School,Geocode,
187,6923050,-83.36778000,30.99125000,Hahira Middle School,31.00000000,101 South Nelson Street,,Hahira,Georgia,,0.00000000,,,,13185,Lowndes,Middle School,Geocode,
188,6924050,-83.18565000,30.68581000,Lake Park Elementary School,30.00000000,604 West Marion Avenue,,Lake Park,Georgia,,0.00000000,,,,13185,Lowndes,Elementary School,Geocode,
189,6952050,-83.12730000,34.06401000,Comer Elementary School,30.00000000,565 Gholston Street,,Comer,Georgia,,0.00000000,,,,13195,Madison,Elementary School,Geocode,
190,6970294,-82.48926000,33.48795000,Norris Elementary School,30.00000000,899 Harrison Road,,Thomson,Georgia,,0.00000000,,,,13189,McDuffie,Elementary School,Geocode,
191,6974050,-82.49892000,33.45812000,Thomson Elementary School,30.00000000,409 Guill Street,,Thomson,Georgia,,0.00000000,,,,13189,McDuffie,Elementary School,Geocode,
192,6995050,-84.61828000,32.86368000,Manchester Middle School,31.00000000,"700 Martin Luther King, Jr. Drive",,Manchester,Georgia,,0.00000000,,,,13199,Meriwether,Middle School,Geocode,
193,7040191,-83.43938000,33.59011000,Morgan County Elementary School,30.00000000,1640 Buckhead Road,,Madison,Georgia,,0.00000000,,,,13211,Morgan,Elementary School,Geocode,
194,7043050,-83.45341000,33.59499000,Morgan County Primary School,30.00000000,993 East Avenue,,Madison,Georgia,,0.00000000,,,,13211,Morgan,Elementary School,Geocode,
195,7045050,-83.47162000,33.60300000,Morgan County Middle School,31.00000000,920 Pearl Street,,Madison,Georgia,,0.00000000,,,,13211,Morgan,Middle School,Geocode,
196,7050198,-84.83798000,34.82570000,Eton Elementary School,30.00000000,829 Highway 286,,Chatsworth,Georgia,,0.00000000,,,,13213,Murray,Elementary School,Geocode,
197,7050290,-84.78135000,34.77201000,Bagley Middle School,31.00000000,1004 Green Road,,Chatsworth,Georgia,,0.00000000,,,,13213,Murray,Middle School,Geocode,
198,7051050,-84.77439000,34.76706000,Chatsworth Elementary School,30.00000000,500 Green Road,,Chatsworth,Georgia,,0.00000000,,,,13213,Murray,Elementary School,Geocode,
199,7060100,-84.88258000,32.55011000,Midland Middle School,31.00000000,6990 Warm Springs Road,,Midland,Georgia,,0.00000000,,,,13215,Muscogee,Middle School,Geocode,
200,7060180,-84.96522000,32.45745000,Marshall Middle School,31.00000000,1830 Shepherd Dr.,,Columbus,Georgia,,0.00000000,,,,13215,Muscogee,Middle School,Geocode,
201,7060191,-84.97303000,32.48750000,Hannan Elementary,30.00000000,1338 Talbotton Rd.,,Columbus,Georgia,,0.00000000,,,,13215,Muscogee,Elementary School,Geocode,
202,7060296,-84.99181000,32.47223000,Downtown Elementary Magnet Academy,30.00000000,1400 First Avenue,,Columbus,Georgia,,0.00000000,,,,13215,Muscogee,Elementary School,Geocode,
203,7061052,-84.99127000,32.50092000,Bibb City Elementary School,30.00000000,96 40th Street,,Columbus,Georgia,,0.00000000,,,,13215,Muscogee,Elementary School,Geocode,
204,7061056,-84.93214000,32.43207000,Cusseta Road Elementary School,30.00000000,4150 Cusseta Road,,Columbus,Georgia,,0.00000000,,,,13215,Muscogee,Elementary School,Geocode,
205,7061058,-84.92182000,32.45320000,Dimon Elementary,30.00000000,480 Dogwood Drive,,Columbus,Georgia,,0.00000000,,,,13215,Muscogee,Elementary School,Geocode,
206,7061060,-84.92706000,32.48401000,Edgewood Elementary School,30.00000000,3835 Forrest Road,,Columbus,Georgia,,0.00000000,,,,13215,Muscogee,Elementary School,Geocode,
207,7061066,-84.91280000,32.50394000,Reese Road Elementary School,30.00000000,3100 Reese Road,,Columbus,Georgia,,0.00000000,,,,13215,Muscogee,Elementary School,Geocode,
208,7061069,-84.95592000,32.43992000,Thirtieth Avenue Elementary School,30.00000000,151 30th Avenue,,Columbus,Georgia,,0.00000000,,,,13215,Muscogee,Elementary School,Geocode,
209,7062050,-84.96297000,32.51304000,Arnold Middle School,31.00000000,2011 51st Street,,Columbus,Georgia,,0.00000000,,,,13215,Muscogee,Middle School,Geocode,
210,7062052,-84.93721000,32.53962000,Blanchard Elementary School,30.00000000,3512 Weems Road,,Columbus,Georgia,,0.00000000,,,,13215,Muscogee,Elementary School,Geocode,
211,7062054,-84.94829000,32.49322000,Clubview Elementary School,30.00000000,2836 Edgewood Road,,Columbus,Georgia,,0.00000000,,,,13215,Muscogee,Elementary School,Geocode,
212,7062056,-84.97723000,32.50687000,Daniel Middle School,31.00000000,1042 45th Street,,Columbus,Georgia,,0.00000000,,,,13215,Muscogee,Middle School,Geocode,
213,7062058,-84.97473000,32.55641000,Double Churches Elementary School,30.00000000,1213 Double Churches Road,,Columbus,Georgia,,0.00000000,,,,13215,Muscogee,Elementary School,Geocode,
214,7062064,-84.96747000,32.40984000,Key Elementary School,30.00000000,2520 Broadmoor Drive,,Columbus,Georgia,,0.00000000,,,,13215,Muscogee,Elementary School,Geocode,
215,7062066,-84.94605000,32.49241000,Richards Middle School,31.00000000,2892 Edgewood Road,,Columbus,Georgia,,0.00000000,,,,13215,Muscogee,Middle School,Geocode,
216,7062067,-84.91589000,32.46766000,Rothschild Middle School,31.00000000,1136 Hunt Avenue,,Columbus,Georgia,,0.00000000,,,,13215,Muscogee,Middle School,Geocode,
217,7063060,-84.88213000,32.48821000,Forrest Road Elementary School,30.00000000,6400 Forrest Road,,Columbus,Georgia,,0.00000000,,,,13215,Muscogee,Elementary School,Geocode,
218,7063066,-84.94683000,32.47208000,Rigdon Road Elementary School,30.00000000,1282 Rigdon Road,,Columbus,Georgia,,0.00000000,,,,13215,Muscogee,Elementary School,Geocode,
219,7063068,-84.91866000,32.44325000,St. Marys Video and Communication Technology,32.00000000,4408 St. Mary's Road,,Columbus,Georgia,,0.00000000,,,,13215,Muscogee,Other School,Geocode,
220,7064056,-84.96535000,32.45745000,Davis Elementary School,30.00000000,1822 Shepherd Drive,,Columbus,Georgia,,0.00000000,,,,13215,Muscogee,Elementary School,Geocode,
221,7064058,-84.91589000,32.46619000,Eastway Elementary School,30.00000000,4601 Buena Vista Road,,Columbus,Georgia,,0.00000000,,,,13215,Muscogee,Elementary School,Geocode,
222,7064060,-84.98636000,32.49799000,Fox Elementary School,30.00000000,3720 Fifth Avenue,,Columbus,Georgia,,0.00000000,,,,13215,Muscogee,Elementary School,Geocode,
223,7064062,-84.96935000,32.49826000,Johnson Elementary School,30.00000000,3700 Woodlawn Avenue,,Columbus,Georgia,,0.00000000,,,,13215,Muscogee,Elementary School,Geocode,
224,7064065,-84.95935000,32.51458000,Allen Elementary School,30.00000000,5201 23rd Avenue,,Columbus,Georgia,,0.00000000,,,,13215,Muscogee,Elementary School,Geocode,
225,7064066,-84.98596000,32.51416000,River Road Elementary School,30.00000000,516 Heath Drive,,Columbus,Georgia,,0.00000000,,,,13215,Muscogee,Elementary School,Geocode,
226,7064067,-84.94906000,32.41681000,South Columbus Elementary School,30.00000000,1964 Torch Hill Road,,Columbus,Georgia,,0.00000000,,,,13215,Muscogee,Elementary School,Geocode,
227,7064070,-84.95861000,32.47031000,Wynnton Elementary School,30.00000000,2303 Wynnton Road,,Columbus,Georgia,,0.00000000,,,,13215,Muscogee,Elementary School,Geocode,
228,7065050,-84.93453000,32.41400000,Benning Hills Elementary School,30.00000000,190 Munson Drive,,Columbus,Georgia,,0.00000000,,,,13215,Muscogee,Elementary School,Geocode,
229,7065056,-84.90606000,32.44796000,Dawson Elementary School,30.00000000,180 Northstar Drive,,Columbus,Georgia,,0.00000000,,,,13215,Muscogee,Elementary School,Geocode,
230,7065058,-84.95253000,32.41447000,Eddy Middle School,31.00000000,2100 South Lumpkin Road,,Columbus,Georgia,,0.00000000,,,,13215,Muscogee,Middle School,Geocode,
231,7065060,-84.92732000,32.50354000,Gentian Elementary School,30.00000000,4201 Primrose Road,,Columbus,Georgia,,0.00000000,,,,13215,Muscogee,Elementary School,Geocode,
232,7065069,-84.89209000,32.47890000,Wesley Heights Elementary School,30.00000000,1801 Amber Drive,,Columbus,Georgia,,0.00000000,,,,13215,Muscogee,Elementary School,Geocode,
233,7080188,-83.44184000,33.87297000,Oconee County Primary School,30.00000000,2290 Hog Mountain Road,,Watkinsville,Georgia,,0.00000000,,,,13219,Oconee,Elementary School,Geocode,
234,7080193,-83.44199000,33.87369000,Oconee County Middle School,31.00000000,1101 Mars Hill Road,,Watkinsville,Georgia,,0.00000000,,,,13219,Oconee,Middle School,Geocode,
235,7080197,-83.50690000,33.91042000,Malcom Bridge Elementary School,30.00000000,2600 Malcom Bridge Road,,Bogart,Georgia,,0.00000000,,,,13219,Oconee,Elementary School,Geocode,
236,7080198,-83.50620000,33.90613000,Malcom Bridge Middle School,31.00000000,2500 Malcom Bridge Road,,Bogart,Georgia,,0.00000000,,,,13219,Oconee,Middle School,Geocode,
237,7081050,-83.44155000,33.87328000,Oconee County Elementary School,30.00000000,2230 Hog Mountain Road,,Watkinsville,Georgia,,0.00000000,,,,13219,Oconee,Elementary School,Geocode,
238,7083050,-83.40862000,33.85439000,Colham Ferry Elementary School,30.00000000,191 Colham Ferry Road,,Watkinsville,Georgia,,0.00000000,,,,13219,Oconee,Elementary School,Geocode,
239,7101050,-84.83276000,33.91575000,Dallas Elementary School,30.00000000,520 Hardee Street,,Dallas,Georgia,,0.00000000,,,,13223,Paulding,Elementary School,Geocode,
240,7120199,-84.43072000,34.46849000,Jasper Primary School,30.00000000,158 Stegall Drive,,Jasper,Georgia,,0.00000000,,,,13227,Pickens,Elementary School,Geocode,
241,7202050,-84.79748000,31.77494000,Randolph County Elementary School,30.00000000,200 Highland Avenue,,Cuthbert,Georgia,,0.00000000,,,,13243,Randolph,Elementary School,Geocode,
242,7210177,-82.07046000,33.40466000,Meadowbrook Elementary School,30.00000000,3630 Goldfinch Drive,,Augusta,Georgia,,0.00000000,,,,13245,Richmond,Elementary School,Geocode,
243,7210184,-82.09817000,33.38654000,Morgan Road Middle School,31.00000000,3635 Hiers Boulevard,,Hephzibah,Georgia,,0.00000000,,,,13245,Richmond,Middle School,Geocode,
244,7210189,-82.09814000,33.38657000,Jamestown Elementary School,30.00000000,3637 Hiers Boulevard,,Hephzibah,Georgia,,0.00000000,,,,13245,Richmond,Elementary School,Geocode,
245,7210190,-81.99224000,33.45629000,Collins Elementary School,30.00000000,1321 Steed Street,,Augusta,Georgia,,0.00000000,,,,13245,Richmond,Elementary School,Geocode,
246,7210194,-82.00661000,33.33897000,Goshen Elementary School,30.00000000,4040 Old Waynesboro Road,,Augusta,Georgia,,0.00000000,,,,13245,Richmond,Elementary School,Geocode,
247,7210197,-82.07340000,33.42953000,Glenn Hills Middle School,31.00000000,2941 Glenn Hills Drive,,Augusta,Georgia,,0.00000000,,,,13245,Richmond,Middle School,Geocode,
248,7210294,-82.07180000,33.37673000,Tobacco Road Elementary School,30.00000000,2397 Tobacco Road,,Augusta,Georgia,,0.00000000,,,,13245,Richmond,Elementary School,Geocode,
249,7210297,-81.96918000,33.25547000,McBean Elementary School,30.00000000,1165 Hephzibah/McBean Road,,Hephzibah,Georgia,,0.00000000,,,,13245,Richmond,Elementary School,Geocode,
250,7210300,-82.05064000,33.47652000,Lake Forest Hills Elementary School,30.00000000,3140 Lake Forest Drive,,Augusta,Georgia,,0.00000000,,,,13245,Richmond,Elementary School,Geocode,
251,7210390,-82.09216000,33.33716000,Spirit Creek Middle School,31.00000000,4044 Windsor Spring Road,,Hephzibah,Georgia,,0.00000000,,,,13245,Richmond,Middle School,Geocode,
252,7211054,-82.01353000,33.50853000,Garrett Elementary School,30.00000000,1100 Eisenhower Drive,,Augusta,Georgia,,0.00000000,,,,13245,Richmond,Elementary School,Geocode,
253,7211060,-82.01660000,33.51456000,National Hills Elementary School,30.00000000,1215 Northwood Drive,,Augusta,Georgia,,0.00000000,,,,13245,Richmond,Elementary School,Geocode,
254,7211062,-82.03280000,33.40497000,Rollins Elementary School,30.00000000,2160 Mura Drive,,Augusta,Georgia,,0.00000000,,,,13245,Richmond,Elementary School,Geocode,
255,7211064,-81.98434000,33.46225000,Walker Traditional Elementary School,30.00000000,1301 Wrightsboro Road,,Augusta,Georgia,,0.00000000,,,,13245,Richmond,Elementary School,Geocode,
256,7211065,-82.05570000,33.39728000,Windsor Spring Road Elementary School,30.00000000,2534 Windsor Spring Road,,Augusta,Georgia,,0.00000000,,,,13245,Richmond,Elementary School,Geocode,
257,7212050,-82.08621000,33.44187000,Barton Chapel Elementary School,30.00000000,2329 Barton Chapel Road,,Augusta,Georgia,,0.00000000,,,,13245,Richmond,Elementary School,Geocode,
258,7212052,-82.06753000,33.47041000,Copeland Elementary School,30.00000000,1440 Jackson Road,,Augusta,Georgia,,0.00000000,,,,13245,Richmond,Elementary School,Geocode,
259,7212054,-82.06519000,33.42941000,Glenn Hills Elementary School,30.00000000,2838 Glenn Hills Drive,,Augusta,Georgia,,0.00000000,,,,13245,Richmond,Elementary School,Geocode,
260,7212058,-82.03919000,33.49771000,Merry Elementary School,30.00000000,415 Boy Scout Road,,Augusta,Georgia,,0.00000000,,,,13245,Richmond,Elementary School,Geocode,
261,7212064,-82.05798000,33.50653000,Warren Road Elementary School,30.00000000,311 Warren Road,,Augusta,Georgia,,0.00000000,,,,13245,Richmond,Elementary School,Geocode,
262,7212552,-81.96062000,33.46294000,Craig Elementary School,30.00000000,400 Hale Street,,Augusta,Georgia,,0.00000000,,,,13245,Richmond,Elementary School,Geocode,
263,7212556,-81.95560000,33.45759000,Hornsby Elementary School,30.00000000,105 Laney-Walker Boulevard,,Augusta,Georgia,,0.00000000,,,,13245,Richmond,Elementary School,Geocode,
264,7212562,-81.93964000,33.45864000,East Augusta Middle School,31.00000000,320 Kentucky Avenue,,Augusta,Georgia,,0.00000000,,,,13245,Richmond,Middle School,Geocode,
265,7213056,-81.95551000,33.46959000,Houghton Elementary School,30.00000000,333 Greene Street,,Augusta,Georgia,,0.00000000,,,,13245,Richmond,Elementary School,Geocode,
266,7213058,-81.99734000,33.48260000,Milledge Elementary School,30.00000000,510 Eve Street,,Augusta,Georgia,,0.00000000,,,,13245,Richmond,Elementary School,Geocode,
267,7213060,-82.12856000,33.47336000,Reynolds Elementary School,30.00000000,3713 Wrightsboro Road,,Augusta,Georgia,,0.00000000,,,,13245,Richmond,Elementary School,Geocode,
268,7213062,-82.03215000,33.40147000,Sego Middle School,31.00000000,3420 Julia Avenue,,Augusta,Georgia,,0.00000000,,,,13245,Richmond,Middle School,Geocode,
269,7213356,-81.99100000,33.43119000,Jenkins Elementary School,30.00000000,101 Dan Bowles Road,,Augusta,Georgia,,0.00000000,,,,13245,Richmond,Elementary School,Geocode,
270,7213556,-81.98174000,33.46661000,Johnson Magnet,32.00000000,1324 Laney-Walker Boulevard,,Augusta,Georgia,,0.00000000,,,,13245,Richmond,Other School,Geocode,
271,7214054,-82.02333000,33.37069000,Gracewood Elementary School,30.00000000,2032 Tobacco Road,,Augusta,Georgia,,0.00000000,,,,13245,Richmond,Elementary School,Geocode,
272,7214058,-82.01447000,33.46852000,Monte Sano Elementary School,30.00000000,2164 Richmond Avenue,,Augusta,Georgia,,0.00000000,,,,13245,Richmond,Elementary School,Geocode,
273,7214062,-82.01394000,33.40227000,Southside Elementary School,30.00000000,3310 Old Louisville Road,,Augusta,Georgia,,0.00000000,,,,13245,Richmond,Elementary School,Geocode,
274,7214064,-82.04292000,33.43068000,Wheeless Road Elementary School,30.00000000,2530 Wheeless Road,,Augusta,Georgia,,0.00000000,,,,13245,Richmond,Elementary School,Geocode,
275,7214562,-81.97459000,33.47368000,Davidson Magnet School,32.00000000,615 12th Street,,Augusta,Georgia,,0.00000000,,,,13245,Richmond,Other School,Geocode,
276,7214762,-82.06033000,33.43908000,Terrace Manor Elementary School,30.00000000,3110 Tate Road,,Augusta,Georgia,,0.00000000,,,,13245,Richmond,Elementary School,Geocode,
277,7215050,-82.02608000,33.43441000,Bungalow Road Elementary School,30.00000000,2216 Bungalow Road,,Augusta,Georgia,,0.00000000,,,,13245,Richmond,Elementary School,Geocode,
278,7215054,-82.01362000,33.41045000,Hains Elementary School,30.00000000,1820 Windsor Spring Road,,Augusta,Georgia,,0.00000000,,,,13245,Richmond,Elementary School,Geocode,
279,7215058,-82.02049000,33.44666000,Murphey Middle School,31.00000000,2610 Milledgeville Road,,Augusta,Georgia,,0.00000000,,,,13245,Richmond,Middle School,Geocode,
280,7215062,-81.99637000,33.47554000,Tubman Middle School,31.00000000,1740 Walton Way,,Augusta,Georgia,,0.00000000,,,,13245,Richmond,Middle School,Geocode,
281,7215064,-82.00986000,33.44461000,Wilkinson Gardens Elementary School,30.00000000,1918 Tubman Home Road,,Augusta,Georgia,,0.00000000,,,,13245,Richmond,Elementary School,Geocode,
282,7215564,-82.03749000,33.49162000,Tutt Middle School,31.00000000,495 Boy Scout Road,,Augusta,Georgia,,0.00000000,,,,13245,Richmond,Middle School,Geocode,
283,7250296,-84.87963000,31.03289000,Seminole County Elementary School,30.00000000,800 Marianna Highway,,Donalsonville,Georgia,,0.00000000,,,,13253,Seminole,Elementary School,Geocode,
284,7260188,-84.26141000,33.24705000,Taylor Street Middle School,31.00000000,234 East Taylor Street,,Griffin,Georgia,,0.00000000,,,,13255,Spalding,Middle School,Geocode,
285,7260195,-84.24690000,33.30354000,Jordan Hill Road Elementary School,30.00000000,75 Jordan Hill Road,,Griffin,Georgia,,0.00000000,,,,13255,Spalding,Elementary School,Geocode,
286,7261052,-84.24258000,33.25315000,Jackson Road Elementary School,30.00000000,1233 Jackson Road,,Griffin,Georgia,,0.00000000,,,,13255,Spalding,Elementary School,Geocode,
287,7261054,-84.24482000,33.24713000,Flynt Middle School,31.00000000,221 Spalding Drive,,Griffin,Georgia,,0.00000000,,,,13255,Spalding,Middle School,Geocode,
288,7261550,-84.26019000,33.27050000,Atkinson Elementary School,30.00000000,307 Atkinson Drive,,Griffin,Georgia,,0.00000000,,,,13255,Spalding,Elementary School,Geocode,
289,7261750,-84.29448000,33.31923000,Beaverbrook Elementary School,30.00000000,251 Birdie Road,,Griffin,Georgia,,0.00000000,,,,13255,Spalding,Elementary School,Geocode,
290,7262054,-84.26004000,33.25820000,Kelsey Avenue Middle School,31.00000000,200 Kelsey Avenue,,Griffin,Georgia,,0.00000000,,,,13255,Spalding,Middle School,Geocode,
291,7262552,-84.26216000,33.25725000,Moore Elementary School,30.00000000,201 Cabin Creek Drive,,Griffin,Georgia,,0.00000000,,,,13255,Spalding,Elementary School,Geocode,
292,7264052,-84.24477000,33.24712000,Orrs Elementary School,30.00000000,205 Spalding Drive,,Griffin,Georgia,,0.00000000,,,,13255,Spalding,Elementary School,Geocode,
293,7270197,-83.32837000,34.58325000,Toccoa Elementary School,30.00000000,400 North Pond Street,,Toccoa,Georgia,,0.00000000,,,,13257,Stephens,Elementary School,Geocode,
294,7290395,-84.22951000,32.04808000,Sarah Cobb Elementary School,30.00000000,1901 Valley Drive,,Americus,Georgia,,0.00000000,,,,13261,Sumter,Elementary School,Geocode,
295,7290595,-84.23202000,32.08012000,Staley Middle School,31.00000000,915 North Lee Street,,Americus,Georgia,,0.00000000,,,,13261,Sumter,Middle School,Geocode,
296,7341050,-82.89191000,32.06880000,Central Elementary School,30.00000000,410 East Grant Street,,McRae,Georgia,,0.00000000,,,,13271,Telfair,Elementary School,Geocode,
297,7360100,-83.96159000,30.85657000,Thomas County Charter School,32.00000000,1815 East Clay Street,,Thomasville,Georgia,,0.00000000,,,,13275,Thomas,Other School,Geocode,
298,7360291,-83.95843000,30.86147000,Central Middle School,31.00000000,200 North Pinetree Boulevard,,Thomasville,Georgia,,0.00000000,,,,13275,Thomas,Middle School,Geocode,
299,7370299,-83.49964000,31.45712000,Eighth Street Middle School,31.00000000,700 West Eighth Street,,Tifton,Georgia,,0.00000000,,,,13277,Tift,Middle School,Geocode,
300,7371050,-83.51321000,31.46548000,Annie Belle Clark Primary School,30.00000000,506 West 12th Street,,Tifton,Georgia,,0.00000000,,,,13277,Tift,Elementary School,Geocode,
301,7372050,-83.52515000,31.46708000,Len Lastinger Primary School,30.00000000,1210 Lake Drive,,Tifton,Georgia,,0.00000000,,,,13277,Tift,Elementary School,Geocode,
302,7381050,-82.31936000,32.20671000,Lyons Elementary School,30.00000000,298 North Lexington Street,,Lyons,Georgia,,0.00000000,,,,13279,Toombs,Elementary School,Geocode,
303,7402050,-82.58358000,32.38128000,Treutlen Elementary School,30.00000000,601 College Street,,Soperton,Georgia,,0.00000000,,,,13283,Treutlen,Elementary School,Geocode,
304,7410187,-85.16713000,32.87827000,West Point Elementary School,30.00000000,1701 East 12th Street,,West Point,Georgia,,0.00000000,,,,13285,Troup,Elementary School,Geocode,
305,7410194,-85.05279000,33.04795000,Hollis Hand Elementary School,30.00000000,641 Country Club Road,,LaGrange,Georgia,,0.00000000,,,,13285,Troup,Elementary School,Geocode,
306,7410397,-84.90532000,33.16939000,Hogansville Elementary School,30.00000000,611 East Main Street,,Hogansville,Georgia,,0.00000000,,,,13285,Troup,Elementary School,Geocode,
307,7410497,-85.02931000,33.01534000,Whitesville Road Elementary School,30.00000000,1700 Whitesville Road,,LaGrange,Georgia,,0.00000000,,,,13285,Troup,Elementary School,Geocode,
308,7411054,-85.04147000,33.03232000,Unity Elementary School,30.00000000,525 Park Avenue,,LaGrange,Georgia,,0.00000000,,,,13285,Troup,Elementary School,Geocode,
309,7420190,-83.64309000,31.70766000,Turner County Middle School,31.00000000,316 Lamar Street,,Ashburn,Georgia,,0.00000000,,,,13287,Turner,Middle School,Geocode,
310,7460100,-85.23660000,34.81608000,Rock Spring Elementary School,30.00000000,372 Highway 95,,Rock Spring,Georgia,,0.00000000,,,,13295,Walker,Elementary School,Geocode,
311,7460194,-85.31031000,34.97541000,Rossville Elementary School,30.00000000,1250 Wilson Road,,Rossville,Georgia,,0.00000000,,,,13295,Walker,Elementary School,Geocode,
312,7460290,-85.35873000,34.92910000,Chattanooga Valley Middle School,31.00000000,847 Allgood Road,,Flintstone,Georgia,,0.00000000,,,,13295,Walker,Middle School,Geocode,
313,7462056,-85.21198000,34.69369000,Naomi Elementary School,30.00000000,4038 East Highway 136,,LaFayette,Georgia,,0.00000000,,,,13295,Walker,Elementary School,Geocode,
314,7475050,-83.71223000,33.79905000,Monroe Elementary School,30.00000000,203 Bold Springs Avenue,,Monroe,Georgia,,0.00000000,,,,13297,Walton,Elementary School,Geocode,
315,7480196,-82.34641000,31.21195000,Williams Heights Elementary School,30.00000000,705 Dewey Street,,Waycross,Georgia,,0.00000000,,,,13299,Ware,Elementary School,Geocode,
316,7480395,-82.38197000,31.23582000,Ware County Middle School,31.00000000,2301 Cherokee Street,,Waycross,Georgia,,0.00000000,,,,13299,Ware,Middle School,Geocode,
317,7500199,-82.81537000,32.99685000,T. J. Elder Middle School,31.00000000,902 Linton Road,,Sandersville,Georgia,,478.00000000,,,,13303,Washington,Middle School,Geocode,
318,7504050,-82.80984000,32.99135000,Sandersville Elementary School,30.00000000,514 North Harris Street,,Sandersville,Georgia,,478.00000000,,,,13303,Washington,Elementary School,Geocode,
319,7505050,-82.81086000,32.93399000,Tennille Elementary School,30.00000000,206 North Main Street,,Tennille,Georgia,,478.00000000,,,,13303,Washington,Elementary School,Geocode,
320,7510294,-81.87897000,31.58138000,Arthur Williams Middle School,31.00000000,1175 South 301 Highway,,Jesup,Georgia,,0.00000000,,,,13305,Wayne,Middle School,Geocode,
321,7510394,-81.88747000,31.61318000,Oak Vista Elementary School,30.00000000,710 West Pine,,Jesup,Georgia,,0.00000000,,,,13305,Wayne,Elementary School,Geocode,
322,7550475,-84.92751000,34.74650000,Eastbrook Middle School,31.00000000,700 Hill Road,,Dalton,Georgia,,0.00000000,,,,13313,Whitfield,Middle School,Geocode,
323,7550575,-84.94448000,34.85989000,North Whitfield Middle School,31.00000000,3264 Cleveland Road,,Dalton,Georgia,,0.00000000,,,,13313,Whitfield,Middle School,Geocode,
324,7550675,-84.98587000,34.68019000,Valley Point Middle School,31.00000000,"3796 Dixie Road, SE",,Dalton,Georgia,,0.00000000,,,,13313,Whitfield,Middle School,Geocode,
325,7550775,-85.04509000,34.78975000,Westside Middle School,31.00000000,580 LaFayette Highway,,Rocky Face,Georgia,,0.00000000,,,,13313,Whitfield,Middle School,Geocode,
326,7551050,-84.93588000,34.73780000,Antioch Elementary School,30.00000000,1819 Riverbend Road,,Dalton,Georgia,,0.00000000,,,,13313,Whitfield,Elementary School,Geocode,
327,7551052,-84.92753000,34.75884000,Eastside Elementary School,30.00000000,102 Hill Road,,Dalton,Georgia,,0.00000000,,,,13313,Whitfield,Elementary School,Geocode,
328,7551054,-84.94723000,34.89448000,Varnell Elementary School,30.00000000,3900 Cleveland Road,,Dalton,Georgia,,0.00000000,,,,13313,Whitfield,Elementary School,Geocode,
329,7552052,-84.94353000,34.83276000,Pleasant Grove Elementary School,30.00000000,2725 Cleveland Road,,Dalton,Georgia,,0.00000000,,,,13313,Whitfield,Elementary School,Geocode,
330,7552054,-85.05003000,34.77253000,Westside Elementary School,30.00000000,1815 Utility Road,,Rocky Face,Georgia,,0.00000000,,,,13313,Whitfield,Elementary School,Geocode,
331,7553050,-84.89419000,34.81438000,Dawnville Elementary School,30.00000000,"1380 Dawnville Road, NE",,Dalton,Georgia,,0.00000000,,,,13313,Whitfield,Elementary School,Geocode,
332,7554050,-84.99837000,34.73374000,Dug Gap Elementary School,30.00000000,2032 Dug Gap Road,,Dalton,Georgia,,0.00000000,,,,13313,Whitfield,Elementary School,Geocode,
333,7554052,-84.98581000,34.68007000,Valley Point Elementary School,30.00000000,"3798 Dixie Road, SE",,Dalton,Georgia,,0.00000000,,,,13313,Whitfield,Elementary School,Geocode,
334,7570192,-82.74590000,33.72996000,Washington-Wilkes Middle School,31.00000000,304-A Gordon Street,,Washington,Georgia,,0.00000000,,,,13317,Wilkes,Middle School,Geocode,
335,7571050,-82.71783000,33.72809000,Washington-Wilkes Primary School,30.00000000,910 East Robert Toombs Avenue,,Washington,Georgia,,0.00000000,,,,13317,Wilkes,Elementary School,Geocode,
336,7632050,-85.15503000,33.73113000,Jones Elementary School,30.00000000,206 Lakeview Drive,,Bremen,Georgia,,0.00000000,,,,13143,Haralson,Elementary School,Geocode,
337,7654050,-84.95922000,34.50010000,Calhoun Middle School,31.00000000,504 Oothcaloga Street,,Calhoun,Georgia,,0.00000000,,,,13129,Gordon,Middle School,Geocode,
338,7744050,-82.92126000,32.55056000,Hillcrest Elementary School,30.00000000,1100 Edgewood Drive,,Dublin,Georgia,,0.00000000,,,,13175,Laurens,Elementary School,Geocode,
339,7745050,-82.92532000,32.53950000,Moore Street Elementary School,30.00000000,1405 West Moore Street,,Dublin,Georgia,,0.00000000,,,,13175,Laurens,Elementary School,Geocode,
340,7790101,-83.57642000,34.12085000,Jefferson Middle School,31.00000000,579 Washington Street,,Jefferson,Georgia,,0.00000000,,,,13157,Jackson,Middle School,Geocode,
341,7843050,-84.16015000,31.11787000,Pelham Elementary School,30.00000000,"534 Barrow Avenue, SW",,Pelham,Georgia,,0.00000000,,,,13205,Mitchell,Elementary School,Geocode,
342,7850173,-85.20893000,34.27604000,West Central Elementary School,30.00000000,402 Lavender Drive,,Rome,Georgia,,0.00000000,,,,13115,Floyd,Elementary School,Geocode,
343,7850275,-85.15963000,34.23341000,East Central Elementary School,30.00000000,1502 Dean Avenue,,Rome,Georgia,,0.00000000,,,,13115,Floyd,Elementary School,Geocode,
344,7851052,-85.20640000,34.26701000,Elm Street Elementary School,30.00000000,8 Elm Street,,Rome,Georgia,,0.00000000,,,,13115,Floyd,Elementary School,Geocode,
345,7852050,-85.18542000,34.24800000,Anna K. Davie Elementary School,30.00000000,301 Nixon Avenue,,Rome,Georgia,,0.00000000,,,,13115,Floyd,Elementary School,Geocode,
346,7852054,-85.23316000,34.27146000,West End Elementary School,30.00000000,5 Brown Fox Drive,,Rome,Georgia,,0.00000000,,,,13115,Floyd,Elementary School,Geocode,
347,7853052,-85.15475000,34.25949000,Main Elementary School,30.00000000,3 Watters Street,,Rome,Georgia,,0.00000000,,,,13115,Floyd,Elementary School,Geocode,
348,7854052,-85.14053000,34.26737000,North Heights Elementary School,30.00000000,26 Atteiram Drive,,Rome,Georgia,,0.00000000,,,,13115,Floyd,Elementary School,Geocode,
349,7890198,-83.98340000,30.85626000,Balfour School For Young Children,30.00000000,201 Chatham Drive,,Thomasville,Georgia,,0.00000000,,,,13275,Thomas,Elementary School,Geocode,
350,7893050,-83.97041000,30.84517000,MacIntyre Park Middle School,31.00000000,117 Glenwood Drive,,Thomasville,Georgia,,0.00000000,,,,13275,Thomas,Middle School,Geocode,
351,7893052,-83.97404000,30.84179000,Scott Elementary School,30.00000000,100 North Hansell Street,,Thomasville,Georgia,,0.00000000,,,,13275,Thomas,Elementary School,Geocode,
352,7895050,-83.96777000,30.82500000,Jerger Elementary School,30.00000000,1006 South Broad Street,,Thomasville,Georgia,,0.00000000,,,,13275,Thomas,Elementary School,Geocode,
353,7921052,-83.26635000,30.85885000,Nunn Elementary School,30.00000000,2201 North Forrest Street,,Valdosta,Georgia,,0.00000000,,,,13185,Lowndes,Elementary School,Geocode,
354,7922050,-83.29247000,30.83764000,West Gordon Elementary School,30.00000000,813 West Gordon Street,,Valdosta,Georgia,,0.00000000,,,,13185,Lowndes,Elementary School,Geocode,
355,7924050,-83.28928000,30.86084000,Mahone Elementary School,30.00000000,2401 North Patterson Street,,Valdosta,Georgia,,0.00000000,,,,13185,Lowndes,Elementary School,Geocode,
356,7925050,-83.29474000,30.84797000,Mason Elementary School,30.00000000,1605 Azalea Drive,,Valdosta,Georgia,,0.00000000,,,,13185,Lowndes,Elementary School,Geocode,
357,7930173,-82.40834000,32.24522000,J. R. Trippe Middle School,31.00000000,2200 McIntosh Street,,Vidalia,Georgia,,0.00000000,,,,13209,Montgomery,Middle School,Geocode,
358,7935050,-82.40265000,32.20710000,Sally Dailey Meadows Elementary School,30.00000000,205 Waters Drive,,Vidalia,Georgia,,0.00000000,,,,13209,Montgomery,Elementary School,Geocode,
359,063-025D(L),-81.50103900,31.19679400,ELLER-WHITLOCK AVE (L),28.00000000,Whitlock St,104 Key Dr,Brunswick,Georgia,31520,912.00000000,264-4952,J.D. ELLER,,13127,Glynn,Landfill,GPS-closed,
360,089-010D(SL),-81.26432900,31.88747300,US ARMY-FT STEWART MAIN CANTONMENT (SL),28.00000000,E Of Mill Crk,Public Works Attn:afzp Dev (john Spears),Ft Stewart,Georgia,31314,912.00000000,767-2010,LT. C0L. CAREY W. BROWN,DIRECTOR PUBLIC WORKS,13179,Liberty,SL,GPS,089-010D(SL)
361,020-017D(MSWL),-81.85439300,30.85917100,CAMDEN CO-SR110 MSWL,28.00000000,Sr110 2.75 Mi N Of Sr 40,P O Box 99,Woodbine,Georgia,31569,912.00000000,526-5601,JOHN PETERSON,COUNTY ADMINISTRATOR,13039,Camden,MSWL,GPS,020-017D(MSWL)
362,X020-017D(MSWL,-81.67697500,30.83602100,CAMDEN CO-SR110 MSWL,28.00000000,Sr110 2.75 Mi N Of Sr 40,P O Box 99,Woodbine,Georgia,31569,912.00000000,526-5601,JOHN PETERSON,COUNTY ADMINISTRATOR,13039,Camden,MSWL,GPS-closed,
363,098-003D(SL),-81.48253600,31.51353700,MCINTOSH CO-KING RD (SL),28.00000000,11.2 Mi N Darien On King Rd,P O Box 584,Darien,Georgia,31305,912.00000000,437-6671,DAVID EARL LANE,"CHAIRMAN, COMM",13191,McIntosh,SL,GPS,098-003D(SL)
364,089-016D(L),-81.39773700,31.84169200,LIBERTY CO-LIMERICK RD (L),28.00000000,4 Mi N Midway Off Es Us 17,P O Box 829,Hinesville,Georgia,31313,912.00000000,876-2164,M.L. COFFER,CHAIRMAN,13179,Liberty,Landfill,GPS,
365,089-016D(L),-81.39811600,31.84122800,LIBERTY CO-LIMERICK RD (L),28.00000000,4 Mi N Midway Off Es Us 17,P O Box 829,Hinesville,Georgia,31313,912.00000000,876-2164,M.L. COFFER,CHAIRMAN,13179,Liberty,Landfill,GPS,
366,025-070D(MSWL),-81.27235700,32.02939500,"SUPERIOR SANITATION, LITTLE NECK RD, PH 2",28.00000000,3001 Little Neck Rd.,3001 Little Neck Rd.,Savannah,Georgia,31419,912.00000000,927-6110,DAVID REMRICK,P. G.,13051,Chatham,MSWL,GPS,025-070D(MSWL)
367,025-056D(L),-81.09025200,31.98322400,CHATHAM CO-THOMAS AVE (L),28.00000000,Thomas Ave .9 Mi S Mont-cross,P O Box 8161,Savannah,Georgia,31416,912.00000000,652-7800,RUSS ABOLT,COUNTY MANAGER,13051,Chatham,Landfill,GPS,
368,025-038D(L),-81.24900800,31.97642600,CHATHAM CO-CHEVIS RD (L),28.00000000,Chevis Rd At Ogeechee Church,P O Box 8161,Savannah,Georgia,31416,912.00000000,652-7800,RUSS ABOLT,COUNTY MANAGER,13051,Chatham,Landfill,GPS,
369,025-038D(L),-81.24925400,31.97696200,CHATHAM CO-CHEVIS RD (L),28.00000000,Chevis Rd At Ogeechee Church,P O Box 8161,Savannah,Georgia,31416,912.00000000,652-7800,RUSS ABOLT,COUNTY MANAGER,13051,Chatham,Landfill,GPS,
370,025-051D(SL),-81.21396200,32.05799200,SAVANNAH-DEAN FOREST RD (SL),28.00000000,Ws Dean Forest Rd N Of Us 175,P O Box 1027,Savannah,Georgia,31402,912.00000000,651-6579,HORACE MAGWOOD,DIRECTOR OF SANITATION,13051,Chatham,MSWL,GPS,025-051D(SL)
371,085-007D(MSWL),-84.20800000,33.08600000,LAMAR CO-REGIONAL SOLID WASTE AUTHORITY MSWL,28.00000000,,922 Grove Street,Barnesville,Georgia,30204,770.00000000,358-5214,MR. JOHNNY POORE,EXECUTIVE DIRECTOR,13171,Lamar,MSWL,GPS,085-007D(MSWL)
372,018-008D(MSWL),-84.12300000,33.23700000,BUTTS CO-PINE RIDGE RECYCLING (MSWL),28.00000000,Baily Jester Road,P. O. Box 44066,Atlanta,Georgia,30336,770.00000000,944-4963,MARK ALLEN,,13255,Spalding,MSWL,GPS,018-008D(MSWL)
373,121-016D(SL),-82.14293700,33.35276000,RICHMOND CO-DEANS BRIDGE RD PH 2C (SL),28.00000000,W Of Dean Bridge Rd,Rm 605 Municipal Bldg,Augusta,Georgia,30911,706.00000000,790-7062,LARRY SCONYERS,MAYOR/CHAIRMAN,13245,Richmond,MSWL,GPS,121-016D(SL)
374,036-010D(SL),-82.23461900,33.48921200,"COLUMBIA CO-BAKER PLACE RD (SL), PH 2",28.00000000,Baker Place Rd 8 Mi Se,P O Box 498,Evans,Georgia,30809,706.00000000,868-6700,"SCOTT GODEFROY, P.E.",DIRECTOR/COUNTY ENGINEER,13073,Columbia,MSWL,GPS,036-010D(SL)
375,036-017D(C&D),-82.25872800,33.52452900,COLUMBIA CO-SAMPLE & SON (C AND D),28.00000000,Sr 232 3 Miles East Of Sr 47,Post Office Box 239,Appling,Georgia,30802,706.00000000,541-1215,ALFRED E. SAMPLE,,13073,Columbia,C&D,GPS,
376,017-002D(SL),-81.96467600,33.08109300,BURKE CO-CLARKE RD (SL),28.00000000,4 Mi Se Waynesboro,P O Box 89,Waynesboro,Georgia,30830,706.00000000,554-2324,HONORABLE ELLIS GODBEE,CHAIRMAN,13033,Burke,SL,GPS,
377,082-005D(SL),-81.91139200,32.78888300,JENKINS CO-CR54 PHASE 2 MSWL & C&D SITE,28.00000000,County Road 54,P O Box 797,Millen,Georgia,30442,912.00000000,982-2563,CHARLES BRAGG,,13165,Jenkins,C&D,GPS,
378,150-010D(MSWL),-82.87267300,32.93561900,WASHINGTON CO-KAOLIN RD S #3 (SL),28.00000000,Kaolin Rd 4 Mi Sw,Brd Of Comm-p O Box 271,Sandersville,Georgia,31082,912.00000000,552-2325,HORACE M. DANIEL,CHAIRMAN,13303,Washington,MSWL,GPS,150-010D(MSWL)
379,081-006D(SL),-82.42993200,33.08881000,JEFFERSON CO-US 1 (AVERA RD) (SL),28.00000000,1.5 Mi N,P O Box 658,Louisville,Georgia,30434,912.00000000,625-3332,FRANK GORDY,COUNTY ADMINISTRATOR,13163,Jefferson,SL,GPS-closed,
380,043-006D(SL),-84.56788200,30.83706200,DECATUR CO-SR 309 BNBRDG PH 2 (SL),28.00000000,Off Sr 309 4.8 Mi S,P O Box 735,Bainbridge,Georgia,31717,912.00000000,248-3032,ALAN THOMAS,CO. ADMINISTRATOR,13087,Decatur,SL,GPS,043-006D(SL)
381,065-002D(SL),-84.22890000,30.88126600,CAIRO-6TH AVE (SL),28.00000000,End 6th Ave Nw Inside City Lim,P O Box 29,Cairo,Georgia,31728,912.00000000,377-1722,DAN WELLS,MAYOR,13131,Grady,SL,GPS,065-002D(SL)
382,136-012D(SL)(3),-83.91256800,30.80624100,"THOMASVILLE, SUNSET DR PHASE 4 MSWL HE",28.00000000,Located So East Of Thomasville,Post Office Box 1540,Thomasville,Georgia,31799,912.00000000,228-7673,WILLIAM T. BERRY,CITY MANAGER,13275,Thomas,MSWL,GPS-closed,136-012D(SL)(3)
383,047-014D(SL),-84.02781000,31.53294400,DOUGHERTY CO-FLEMING/GAISSERT RD (SL),28.00000000,10 Mi Se Albany Ss Fleming Rd,P O Box 1827,Albany,Georgia,31702,912.00000000,431-2121,GIL BARRETT,CHAIRMAN,13095,Dougherty,MSWL,GPS,047-014D(SL)
384,047-018D(L),-84.11514200,31.58884900,"MAPLE HILL LANDFILL, INC.",28.00000000,N. Of Rr At Turner Field,P O Box 70252,Albany,Georgia,31707,912.00000000,883-3232,BRUCE MELTON,,13095,Dougherty,Landfill,GPS,
385,002-009D(MSWL),-82.96427700,31.31900900,ATKINSON CO-SR 50 MSWL,28.00000000,Sr50 6 Miles W Of Pearson,P. O. Box 518,Pearson,Georgia,31642,912.00000000,422-7258,WAYNE WALKER,"CHAIRMAN,SWMA OF ATKINSON CO",13003,Atkinson,MSWL,GPS,002-009D(MSWL)
386,148-008D(SL),-82.44446900,31.27299300,"TRICOUNTY MSWL, PHASE 1",28.00000000,Thigpen Rd,,,Georgia,,0.00000000,-,,,13299,Ware,MSWL,GPS,
387,024-006D(SL),-82.08588500,30.70740800,"CHESSER ISLAND ROAD LANDFILL, INC. MSWL",28.00000000,Of Chesser Islnd Rd 12.1 Mi Sw,9471 Baymeadows Rd. Suite 302,Jacksonville,Georgia,32256,904.00000000,739-0399,MR. KEVIN R. KOHN,PRESIDENT,13049,Charlton,MSWL,GPS,024-006D(SL)
388,092-021D(MSWL),-83.31716300,30.67261000,LOWNDES CO- SR 31 CLYATVILLE #2 (SL),28.00000000,"Sr 31, .5 Mi S",,,Georgia,,0.00000000,-,,,13185,Lowndes,MSWL,GPS,
389,092-019D(MSWL),-83.36031500,30.81339000,PECAN ROW MUNICIPAL SOLID WASTE LANDFILL,28.00000000,"Wetherington Ln, Ws Off Us 84 W",2995 Wetherington Lane,Valdosta,Georgia,31601,912.00000000,241-8440,DELL DANNELS,,13185,Lowndes,MSWL,GPS,092-019D(MSWL)
390,092-014D(SL),-83.35992700,30.82298000,VALDOSTA-WETHERINGTON LANE (SL),28.00000000,Wetherington Ln 5.3 Mi W,P.o. Box 1125,Valdosta,Georgia,31604,912.00000000,242-2600,JAMES RAINWATER,MAYOR,13185,Lowndes,SL,GPS,
391,037-010D(MSWL),-83.42237100,31.09928000,"COOK CO. - TAYLOR RD., SITE 2 (MSWL)",28.00000000,1.4 Miles South Of Adel,212 North Parrish Avenue,Adel,Georgia,31620,912.00000000,896-2266,FAYE HUGHES,COUNTY ADMINISTRATOR,13075,Cook,MSWL,GPS,037-010D(MSWL)
392,037-008D(L),-83.42237100,31.09928000,COOK CO-TAYLOR RD ADEL (L),28.00000000,"Taylor Rd, 1.5 Mi S",212 N Parrish Ave,Adel,Georgia,31620,912.00000000,896-2266,VAN G. WHALER,,13075,Cook,Landfill,GPS,
393,137-007D(SL)(3),-83.53689700,31.35812000,TIFTON-OMEGA/ELDORADO RD PH 3 (SL),28.00000000,Omega + Eldorado Rd 7 Mi Ne,Post Office Box 229,Tifton,Georgia,31793,912.00000000,382-6231,CHARLES HOWELL,CITY MANAGER,13277,Tift,MSWL,GPS,137-007D(SL)(3)
394,009-005D(SL),-83.19382400,31.74638000,"FITZGERALD,KIOCHEE CHURCH RD,PH.2",28.00000000,North Of Joshlyn Road,102 N. Johnson Street,Fitzgerald,Georgia,31750,912.00000000,423-9827,MR. ALVIE DORMINEY,CITY ADMINISTRATOR,13017,Ben Hill,MSWL,GPS,009-005D(SL)
395,029-012D(SL),-83.26561000,33.92402500,"CLARKE CO-DUNLAP RD (SL) PH 2,3,&4",28.00000000,Us 78 4.5 Mi E Athens,P O Box 1868,Athens,Georgia,30603,706.00000000,357-6140,SHARYN DICKERSON,ACTING DIRECTOR OF SOLID WASTE,13059,Clarke,MSWL,GPS,029-012D(SL)
396,109-002D(SL),-83.13411000,33.88966800,OLGETHORPE CO-US 78 C/D LANDFILL,28.00000000,Us 78 One Mile Ne Of Crawford,P.o.box 261,Lexington,Georgia,30648,706.00000000,743-5270,HONORABLE ROBERT JOHNSON,CHAIRMAN,13221,Oglethorpe,C&D,GPS,
397,052-008D(SL),-82.78080000,34.13498700,ELBERT CO.- HULL CHAPEL RD PH 1 (SL),28.00000000,Off Hill Chapel Rd 4.5 Mi Ne,C/o Ecms 45 Forest Ave.,Elberton,Georgia,30635,706.00000000,283-2000,A.H. MITCHELL,COUNTY MANAGER,13105,Elbert,SL,GPS,
398,007-020D(SL),-83.77220000,33.96574400,REPUBLIC WASTE-OAK GROVE MSWLF SR324,28.00000000,Off Sr 324 3 Mi Sw Of,967 Carl-bethlehem,Winder,Georgia,30680,770.00000000,867-2499,MARK ALLEN,GENERAL MANAGER,13013,Barrow,MSWL,GPS,007-020D(SL)
399,107-013D(SL)(2),-83.89546000,33.55163800,NEWTON CO - LOWER RIVER RD SITE#2 HE MSWL,28.00000000,Lower River Rd Covington,113 Usher Street,Covington,Georgia,30209,770.00000000,784-2000,HONORABLE DAVIS MORGAN,CHAIRMAN,13217,Newton,MSWL,GPS,107-013D(SL)(2)
400,107-013D(SL),-83.89547000,33.55163900,NEWTON CO-FOREST TOWER/LWR RVR RDS (SL),28.00000000,Forest Tower + Lwr Rvr Rds S Of,1113 Usher St.,Covington,Georgia,30209,770.00000000,784-2000,DAVIS MORGAN,CHAIRMAN,13217,Newton,C&D,GPS,
401,079-004D(SL),-83.72406000,33.31568900,JASPER CO-SR 212 MONTICELLO (SL),28.00000000,Sr 212 2.4 Mi Nw,Jasper County Board Of Comm.  Jasper County Courth,Monticello,Georgia,31064,706.00000000,468-4900,C. TATE TURNER,CHAIRMAN,13159,Jasper,SL,GPS,079-004D(SL)
402,117-007D(SL),-83.42429900,33.33291000,PUTNAM CO-CR 29 (L) & (SL),28.00000000,"Both Sides Cr 29, 1 Mi W Of",108 South Madison Ave,Eatonton,Georgia,31024,706.00000000,485-5826,DONALD RIDLEY,CHAIRMAN,13237,Putnam,SL,GPS,117-007D(SL)
403,005-017D(SL),-83.33751800,32.96884500,"BALDWIN CO-UNION HILL CH RD, PH 3 (MSWL)",28.00000000,Union Hill Ch Rd Next To Ph 2,201 West Hancock St.se,Milledgeville,Georgia,31061,912.00000000,453-4791,BOBBY WARREN,CHAIRMAN,13009,Baldwin,MSWL,GPS,005-017D(SL)
404,102-008D(SL),-83.91174600,33.09588900,MONROE CO-STRICKLAND LOOP RD,28.00000000,Strickland Loop Rd,P O Box 189,Forsyth,Georgia,31029,912.00000000,994-7000,THOMAS WILSON,CHAIRMAN,13207,Monroe,MSWL,GPS,102-008D(SL)
405,011-026D(SL),-83.51762900,32.82365300,SWIFT CREEK MSW LANDFILL,28.00000000,Davis + Grisold Rds 5 Mi E Of,3836 Melrose St,Macon,Georgia,31204,912.00000000,750-9221,JERRY HAGAN,GENERAL MANAGER,13021,Bibb,MSWL,GPS,011-026D(SL)
406,076-020D(SL),-83.55570600,32.39991900,HOUSTON CO - SR 247 KLONDIKE,28.00000000,E Of Sr 247 Near Pulaski Line,200 Carl Vinson Parkway,Warner Robins,Georgia,31088,0.00000000,-,J. SHERILL STAFFORD,CHAIRMAN,13153,Houston,MSWL,GPS,076-020D(SL)
407,143-008D(SL),-83.43735200,32.77087000,TWIGGS CO-US 80 (SL),28.00000000,"Off Us 8o, 8.5 Mi N Of",P O Box 202,Jefferson,Georgia,31044,912.00000000,945-3629,WILLIAM HAMRICK,CHAIRMAN,13289,Twiggs,MSWL,GPS,143-008D(SL)
408,011-018D(L),-83.51763000,32.82365300,SWIFT CREEK LANDFILL,28.00000000,Nw X Davis & Grisold Rds,3636 Melrose Street,Macon,Georgia,31204,912.00000000,750-9221,JERRY HAGAN,GENERAL MANAGER,13021,Bibb,Landfill,GPS,
409,011-017D(SL),-83.61957200,32.82260700,MACON-WALKER RD PH 2 (SL),28.00000000,Off 11th St 2.7 Mi Sw Macon,700 Poplar Street,Macon,Georgia,31201,912.00000000,751-9131,"HONORABLE, JIM MARSHALL",MAYOR,13021,Bibb,SL,GPS,011-017D(SL)
410,040-008D(MSWL),-83.74903500,31.86750000,CRISP CO-US 41S SITE 2 (PH 4) MSWL,28.00000000,Us 41 6.5 Mi South Of Cordele,210 Seventh St.,Cordele,Georgia,31015,912.00000000,276-2677,"J. R DOWDEY, JR.",CHAIRMAN,13081,Crisp,MSWL,GPS,040-008D(MSWL)
411,133-003D(SL),-84.37959700,32.45752300,"ALLIED SERVICES, LLC -SR 90/SR 137 CHARING (SL)",28.00000000,Sr 90 + Sr 137,4696 South Cobb Drive,Smyrna,Georgia,30080,770.00000000,435-9962,ERIC CASH,,13269,Taylor,MSWL,GPS,133-003D(SL)
412,094-009D(MSWL),-84.01431000,32.36343000,MACON CO- MIDDLE GA SWMA REGIONAL MSWL,28.00000000,Sr 49 App 4.5 Mi N Of Montezuma,,,Georgia,,0.00000000,-,,,13193,Macon,MSWL,GPS,
413,106-011D(SL),-84.49000000,32.49000000,COLUMBUS-SCHATULGA RD W FILL PH 2 (SL),28.00000000,Off Schatulga Rd 4 Mi E Hwy1,P O Box 1340,Columbus,Georgia,31993,706.00000000,653-4159,BOBBY PETERS,MAYOR,13215,Muscogee,SL,GPS-closed,
414,151-014D(SL),-81.94090800,31.47102600,"WAYNE CO-SR23,BROADHURST",28.00000000,Sw Of Broadhurst,Po Box 217,Jesup,Georgia,31545,912.00000000,427-5900,NANCY JONES,COUNTY ADMINISTRATOR,13305,Wayne,MSWL,GPS,151-014D(SL)
415,138-006D(MSWL),-82.38649400,32.14432700,"TOOMBS CO-S1898, PHASE 3 (MSWL)",28.00000000,Lyons - Center Road,P. O. Box 112,Lyons,Georgia,30436,912.00000000,526-3311,HONORABLE JAMES A. THOMPSON,CHAIRMAN,13279,Toombs,MSWL,GPS,138-006D(MSWL)
416,087-015D(SL),-83.04991400,32.58866700,LAURENS CO-OLD MACON ROAD MSWL,28.00000000,Old Macon & Starlight Ch.rds.,P.o.box 2011,Dublin,Georgia,31040,912.00000000,272-4755,MR. D.M. MULLIS,"CHAIRMAN, LCSWMA",13175,Laurens,MSWL,GPS,087-015D(SL)
417,001-006D(SL),-82.22741800,31.88435400,APPLING CO-ROARING CREEK PH 1&2 (SL),28.00000000,10 Mi Hghwy-10 Mi Ne Baxley,100 Oak St,Baxley,Georgia,31513,912.00000000,367-8100,WILLIAM LEGGETT,CHAIRMAN COUNTY COMMISSION,13001,Appling,SL,GPS-closed,001-006D(SL)
418,134-015D(MSWL),-82.90839200,31.89059300,TELFAIR CO - CR 144 MSWL,28.00000000,9 Miles South Of Mcrae,Courthouse Square,Mcrae,Georgia,31055,912.00000000,868-5688,HONORABLE CHESTER SWAIN,CHAIRMAN,13271,Telfair,MSWL,GPS,134-015D(MSWL)
419,021-006D(MSWL),-82.06745400,32.45939300,CANDLER CO-SR 121 PHASE 2 MSWL,28.00000000,"Sr 121, 4 Mi N Of Metter",705 North Lewis Street,Metter,Georgia,30439,912.00000000,685-2835,HONORABLE GEORGE W BIRD,CHAIRMAN,13043,Candler,MSWL,GPS,021-006D(MSWL)
420,054-005D(L),-81.92325700,32.13079100,EVANS CO-SIKES BRANCH CLAXTON (L),28.00000000,Us 301 2 Mi S,P O Box 711,Claxton,Georgia,30417,912.00000000,739-1141,CHARLES OGELSBY,COUNTY COMMISSION CHAIRMAN,13109,Evans,Landfill,GPS,
421,080-006D(L),-82.68681600,31.86084000,JEFF DAVIS CO-CR 20 (L),28.00000000,Cr 20,P O Box 602,Hazlehurst,Georgia,31539,912.00000000,375-4263,MR LONNIE V ROBERTS,CO. ADMINISTRATOR,13161,Jeff Davis,Landfill,GPS,
422,093-003D(SL),-83.99931200,34.52489200,LUMPKIN CO-BARLOW HOMES RD PH 2 (SL),28.00000000,"End Barlow Homes Rd, Off Us 19",99 Courthouse Hill,Dahlonega,Georgia,30533,706.00000000,864-3742,CHARLIE A. RIDLEY,SOLE COMMISSIONER,13187,Lumpkin,SL,GPS,
423,042-002D(SL),-84.11932100,34.44006700,DAWSON CO-SHOAL HOLE RD (SL),28.00000000,Shoal Hole Rd 1.2 Mi N,P O Box 192,Dawsonville,Georgia,30534,706.00000000,265-3164,"ROBERT WALLACE, CHAIRMAN",COMMISSIONER,13085,Dawson,SL,GPS,
424,069-015D(MSWL),-83.79900800,34.24740700,HALL CO.-CANDLER RD (SR 60),28.00000000,2.5 Miles S Of Gainesville,Po Drawer 1435,Gainesville,Georgia,30505,770.00000000,535-8270,BRENDA BRANCH,CHAIRMAN,13139,Hall,MSWL,GPS,069-015D(MSWL)
425,069-008D(SL),-83.77889700,34.25430000,HALL CO-ALLEN CREEK PH A (SL),28.00000000,Oak Grove Church Rd,P. O. Box 1435,Gainesville,Georgia,30503,770.00000000,535-8260,DONALD A MILLS,"CHAIRMAN, BD OF COMMISSIONERS",13139,Hall,SL,GPS,
426,069-014D(C&D),-83.80179300,34.28073800,"RELIABLE TIRE SERVICE, MONROE DR.",28.00000000,Ws Monroe Dr S Of 129,Usa Waste-2336 Bolton Road,Atlanta,Georgia,30318,404.00000000,799-1047,MARY C. COLLINS,ENV. COMPLIANCE MGR,13139,Hall,C&D,GPS,
427,006-009D(MSWL),-83.42609700,34.34919500,CHAMBERS R & B LANDFILL SITE #2,28.00000000,705 Frank Bennett Road,3001 So. Pioneer Drive,Smyrna,Georgia,30080,404.00000000,799-2950,GREG ROSSER,VICE PRESIDENT,13011,Banks,MSWL,GPS,006-009D(MSWL)
428,059-008D(SL),-83.22910100,34.34133600,FRANKLIN CO-HARRISON BRIDGE RD PH 1 (SL),28.00000000,Harrison Bridge Rd S,P O Box 159,Carnesville,Georgia,30521,706.00000000,384-2483,JAMES L. LECROY,CHAIRMAN,13119,Franklin,SL,GPS,059-008D(SL)
429,127-003D(SL),-83.30947300,34.54223900,STEPHENS CO-SR 145 PH 2&3 (SL),28.00000000,"Sr 145, 2 Mi Se",P O Box 386,Toccoa,Georgia,30577,706.00000000,886-9491,JONESY HAYGOOD,COMMISSION CHAIRMAN,13257,Stephens,C&D,GPS,
430,068-020D(SL),-83.45874400,34.55528900,HABERSHAM CO- SR13 MSWL,28.00000000,Sr 13 4 Mi Ne Of Cornelia,P. O. Box 227,Clarksville,Georgia,30523,706.00000000,754-6264,JERRY TANKSLEY,CHAIRMAN,13137,Habersham,MSWL,GPS,068-020D(SL)
431,,-84.25732700,34.32923700,Landfill,28.00000000,,,,Georgia,,0.00000000,-,,,13117,Forsyth,Landfill,GPS,
432,241001,-83.42109500,34.81922600,Landfill,28.00000000,,,,Georgia,,0.00000000,-,,,13241,Rabun,Landfill,GPS,
433,064-016D(SL),-84.76600500,34.51073100,GORDON CO-REDBONE RIDGES RD (SL),28.00000000,Redbone Ridges Rd.,P. O. Box 580,Calhoun,Georgia,30703,706.00000000,629-3795,BILL ANDERSON,CHAIRMAN,13129,Gordon,MSWL,GPS,064-016D(SL)
434,023-007D(MSWL),-85.17109500,34.88378800,"CATOOSA CO- SR 151, SITE NO. 2 MSWL",28.00000000,Popular Springs & Baggett Rd,,,Georgia,,0.00000000,-,,,13047,Catoosa,MSWL,GPS,023-007D(MSWL)
435,023-007D(MSWL),-85.17109300,34.88378800,"CATOOSA CO-SR151, SITE NO. 2 MSWL",28.00000000,Popular Springs & Baggett Rd,206 E. Nashville Street,Ringgold,Georgia,30736,706.00000000,935-2500,,,13047,Catoosa,MSWL,GPS,023-007D(MSWL)
436,146-003D(SL),-85.36343000,34.83942900,WALKER CO-MARBLE TOP RD AREAS 1-5 (SL),28.00000000,"Marble Top Rd, 2.5 Mi N Sr 143",P O Box 445,LaFayette,Georgia,30728,706.00000000,638-1437,BUDDY CHAPMAN,SOLE COMMISSIONER,13295,Walker,SL,GPS,
437,146-013D(L),-85.26772200,34.66740600,LAFAYETTE-COFFMAN SPRINGS RD (L),28.00000000,Coffman Springs Rd.,P O Box 89,LaFayette,Georgia,30728,706.00000000,638-1394,DAVID ALDRICH,CITY MANAGER,13295,Walker,Landfill,GPS,
438,057-020D(MSWL),-85.21468400,34.19475100,"ROME WALKER MTN RD, SITE 2",28.00000000,Walker Mountain Road,P.o.box 1433,Rome,Georgia,30162,706.00000000,236-4466,MICHAEL S. GATTIS,CITY MANAGER,13115,Floyd,MSWL,GPS,057-020D(MSWL)
439,115-008D(SL),-85.16828800,33.99523800,POLK CO-GRADY RD (SL),28.00000000,Off Grady Rd S Us 278,P O Box 268,Cedartown,Georgia,30125,770.00000000,748-1305,CLINTON LESTOR,CO. ADMINISTRATOR,13233,Polk,MSWL,GPS,115-008D(SL)
440,071-005D(SL),-85.22550200,33.70382900,HARALSON CO-US 78 BREMEN PH 2 (SL),28.00000000,Ss Us 78 5 Mi W Cntr,P O Box 489,Buchanan,Georgia,30113,770.00000000,646-2002,AMOS SPARKS,SOLE COMMISSIONER,13143,Haralson,SL,GPS,
441,110-005D(SL),-84.79888800,34.01786200,PAULDING CO-GULLEDGE RD N TRACT 1 (SL),28.00000000,"1 Mi N Gulledge Rd, 6 Mi N",120 East Memorial Drive,Dallas,Georgia,30132,770.00000000,443-7514,BILL CARRUTH,COMMISSION CHAIRMAN,13223,Paulding,SL,GPS,110-005D(SL)
442,008-008D(SL),-84.76260100,34.14392000,BARTOW CO-SR 294 EMERSON (SL) PH 1 (C&D),28.00000000,Sr 294 Btwn Us 41 & Sr 293,P O Box 543,Cartersville,Georgia,30120,404.00000000,387-5145,CLARANCE BROWN,COUNTY COMMISSIONER,13015,Bartow,C&D,GPS,
443,008-016D(SL),-84.76260300,34.14391900,BARTOW CO-SR 294 EMERSON MSWL PH 2,28.00000000,Sr 294 Btwn Us 41 & Sr 293,P O Box 543,Cartersville,Georgia,30120,770.00000000,387-5030,CLARENCE BROWN,SOLE COMMISSIONER,13015,Bartow,MSWL,GPS,008-016D(SL)
444,141-023D(SL),-84.90656000,33.03249500,TROUP CO-SR 109 MOUNTVILLE PH 2 (SL),28.00000000,"Sr 109, 1.5 Mi W",P O Box 1149,La Grange,Georgia,30241,706.00000000,882-1478,JUDSON F. GILMER,,13285,Troup,C&D,GPS,
445,141-013D(SL),-84.95303500,33.04645200,LAGRANGE-I 85/SR 109 (SL),28.00000000,I 85 + St 109 2 Mi E,P O Box 430,La Grange,Georgia,30241,706.00000000,883-2010,"RAYMOND SMITH, JR.",MAYOR,13285,Troup,SL,GPS,141-013D(SL)
446,038-015D(C&D),-84.85371400,33.36671500,COWETA CO- ISHMAN HALLARD RD C&D LANDFILL,28.00000000,Ishman Ballard Rd,,,Georgia,,0.00000000,-,,,13077,Coweta,C&D,GPS,
447,105-014D(MSWL),-84.73060300,34.68076800,MURRAY CO. - US 411 WESTSIDE SITE 2 MSWL,28.00000000,West Side Of Us 411,Post Office Box 1129,Chatsworth,Georgia,30705,706.00000000,695-2413,HONORABLE JIMMIE WITHEROW,CHAIRMAN,13213,Murray,MSWL,GPS,105-014D(MSWL)
448,155-021D(SL),-84.95544100,34.65129700,DALTON-OLD DIXIE HWY PH 2 (SL),28.00000000,Old Dixie Hwy 8 Mi S,P O Box 1205,Dalton,Georgia,30722,706.00000000,278-6006,JAMES A. MIDDLETON,MAYOR,13313,Whitfield,SL,GPS,155-021D(SL)
449,155-033D(SL),-85.04727300,34.75145400,DALTON-ROCKY FACE (WS) PH 2 (SL),28.00000000,Landfill Rd 2.33 Mi S Sr 201,P O Box 1205,Dalton,Georgia,30722,706.00000000,278-6006,JAMES A. MIDDLETON,MAYOR,13313,Whitfield,SL,GPS,
450,155-047D(SL),-84.95544200,34.65129700,"WHITFIELD CO-DALTON, OLD DIXIE HWY, PH 6",28.00000000,4189 Old Dixie Highway,P. O. Box 1205,Dalton,Georgia,30722,706.00000000,278-6006,JAMES A. MIDDLETON,MAYOR,13313,Whitfield,MSWL,GPS,155-047D(SL)
451,FS080118,-83.29494700,35.02606400,Sky Valley Volunteer Fire Department,12.00000000,Hidden Valley Dr,,Scaly Mountain,Georgia,28775,704.00000000,526-5856,,,13193,Macon,Fire Station,GPS,
452,SP080010,-83.00426800,34.38331500,Hartwell Adventist School,20.00000000,Canyon Dr,"Route 1, Box 1724",Bowersville,Georgia,30516,706.00000000,376-9701,,,13147,Hart,Private School,GPS,
453,SP080003,-83.49311300,34.56223400,Central Heights Christian,20.00000000,,"Route 2, Box 339",Mt. Airy,Georgia,30563,706.00000000,778-3360,,,13137,Habersham,Private School,GPS,
454,SP080005,-83.39096500,34.72798800,Tallulah Falls (Coed-Boarding),20.00000000,Falls Rd,P.O. Box 10,Tallulah Falls,Georgia,30573,706.00000000,754-3171,,,13241,Rabun,Private School,GPS,
455,SP080013,-83.41616900,34.79659400,Tabernacle Baptist,20.00000000,Hwy 441,P.O. Box 848,Clayton,Georgia,30525,706.00000000,782-2734,,,13241,Rabun,Private School,GPS,
456,SP080012,-83.38869800,34.96268000,Rabun Gap Nacoochee (Coed-Boarding),20.00000000,Hwy. 441 North,,Rabun Gap,Georgia,30568,706.00000000,746-7467,,,13241,Rabun,Private School,GPS,
457,SP080015,-84.07134600,34.96690200,Lighthouse Christian,20.00000000,6371 John Smith Rd.,,Blairsville,Georgia,30512,706.00000000,745-1606,,,13291,Union,Private School,GPS,
458,SP080016,-83.72332700,34.59095500,White Creek Christian Academy,20.00000000,67 Academy Dr.,,Cleveland,Georgia,30528,706.00000000,865-1917,,,13311,White,Private School,GPS,
459,SP080008,-83.89916000,34.23098900,Maranatha Christian Academy,20.00000000,5135 McEver Rd.,P.O. Box 877,Oakwood,Georgia,30566,770.00000000,536-6334,,,13139,Hall,Private School,GPS,
460,SP080009,-83.82676900,34.30110200,Westminster Christian School,20.00000000,201 Green St.,,Gainesville,Georgia,30501,770.00000000,534-1081,,,13139,Hall,Private School,GPS,
461,SP080007,-83.80663600,34.31970500,Lakeview Academy,20.00000000,796 Lakeview Dr. NE,,Gainesville,Georgia,30501,770.00000000,532-4383,,,13139,Hall,Private School,GPS,
462,SP080006,-83.82217000,34.30220900,Brenau Academy (Girls-Boarding),20.00000000,"One Centennial Cir., Academy St.",,Gainesville,Georgia,30501,770.00000000,534-6140,,,13139,Hall,Private School,GPS,
463,2P080004,-83.84845100,34.93208000,Young Harris College,3.00000000,1 College St.,,Young Harris,Georgia,30582-0098,706.00000000,379-3112,Thomas Yow,President,13281,Towns,Private Four-Year College,GPS,
464,2P080001,-83.74891300,34.59397400,Truett McConnell College,1.00000000,100 Alumni Drive,,Cleveland,Georgia,30528,706.00000000,865-2134,Thomas Bryan,President,13311,White,Private Two-Year College,GPS,
465,FS080042,-83.82472600,34.29704800,Gainesville Fire Department,12.00000000,118 Jessie Jewell Pkwy S E,,Gainesville,Georgia,30501,770.00000000,534-3612,,,13139,Hall,Fire Station,GPS,
466,FS080043,-83.83249400,34.31276200,Gainesville Fire Department Station 02,12.00000000,"310 Piedmont Rd, NW",,Gainesville,Georgia,30501,770.00000000,534-3613,,,13139,Hall,Fire Station,GPS,
467,FS150002,-83.21858300,33.90158000,Arnoldsville Volunteer  Fire Department,12.00000000,Stewart Cir,Post Office Box 130,Arnoldsville,Georgia,30619,706.00000000,743-8101,,,13221,Oglethorpe,Fire Station,GPS,
468,FS150011,-83.23011700,33.98046400,Beaverdam Volunteer Fire Department,12.00000000,186 Smithonia Rd,Post Office Box 612,Winterville,Georgia,30683,706.00000000,742-7134,,,13221,Oglethorpe,Fire Station,GPS,
469,FS150090,-83.12541400,34.01715600,Pleasant Hill Volunteer Fire Department,12.00000000,GA Hwy 22,,Comer,Georgia,30629,706.00000000,783-3541,,,13221,Oglethorpe,Fire Station,GPS,
470,FS150024,-83.15590100,33.91994400,Devil's Pond Volunteer Fire Department,12.00000000,Devils Pond Rd,,Crawford,Georgia,30630,706.00000000,743-5541,,,13221,Oglethorpe,Fire Station,GPS,
471,FS150022,-83.15512200,33.88309700,Crawford Volunteer Fire Department,12.00000000,,Post Office Box 567,Crawford,Georgia,30630,706.00000000,743-5707,,,13221,Oglethorpe,Fire Station,GPS,
472,FS150051,-83.17435000,33.75500400,Maxeys Volunteer Fire Department,12.00000000,369 S Main St,Post Office Box 1144,Stephens,Georgia,30667,770.00000000,559-2177,,,13221,Oglethorpe,Fire Station,GPS,
473,FS150088,-82.99719200,33.72898300,Philomath Volunteer Fire Department,12.00000000,GA Hwy 22,,Philomath,Georgia,30660,706.00000000,274-3582,,,13221,Oglethorpe,Fire Station,GPS,
474,FS150095,-83.08203800,33.81198900,Salem Volunteer Fire Department,12.00000000,10 Paradise Bryant Rd,,Stephens,Georgia,30667,706.00000000,743-3444,,,13221,Oglethorpe,Fire Station,GPS,
475,FS150046,-83.11044500,33.86940100,Lexington Volunteer Fire Department,12.00000000,218 Main St,Post Office Box 183,Lexington,Georgia,30648,706.00000000,743-8101,,,13221,Oglethorpe,Fire Station,GPS,
476,FS150118,-83.04811400,33.87262600,Wesley Chapel Volunteer Fire Department,12.00000000,Wesley Chapel Rd,,Lexington,Georgia,30648,706.00000000,743-8425,,,13221,Oglethorpe,Fire Station,GPS,
477,FS150096,-83.06231300,33.94419600,Sandy Cross Volunteer Fire Department,12.00000000,Sandy Cross Rd,,Lexington,Georgia,30648,706.00000000,743-3510,,,13221,Oglethorpe,Fire Station,GPS,
478,FS150035,-83.01156500,33.99848200,Glade Volunteer Fire Department,12.00000000,Lexington Carlton Rd,,Carlton,Georgia,30627,770.00000000,496-3137,,,13221,Oglethorpe,Fire Station,GPS,
479,FS150105,-82.94036600,33.95658700,Vesta Volunteer Fire Department,12.00000000,SR 77,,Carlton,Georgia,30627,706.00000000,743-3419,,,13221,Oglethorpe,Fire Station,GPS,
480,FS150033,-82.86793700,34.03471200,Elbert County Fire Department Wyche Station,12.00000000,2122 Wyche Cir,,Elberton,Georgia,30635,706.00000000,783-7425,,,13105,Elbert,Fire Station,GPS,
481,FS150028,-82.77927800,34.01472900,Elbert County Fire Department Fortsonia Station,12.00000000,2133 Dr George Ward Rd,,Elberton,Georgia,30635,706.00000000,283-7425,,,13105,Elbert,Fire Station,GPS,
482,FS150031,-82.72933200,34.05890400,Elbert County Fire Department Longstreet Station,12.00000000,1065 Longstreet Rd,,Elberton,Georgia,30635,706.00000000,283-7425,,,13105,Elbert,Fire Station,GPS,
483,FS152010,-82.92159000,34.08987300,GA Forestry Commission - Elbert,12.00000000,1065 Jones Ferry Rd,,Elberton,Georgia,30635,706.00000000,486-2466,Larry Burden,,13105,Elbert,Fire Station,GPS,
484,FS150029,-82.86588400,34.11214400,Elbert County Fire Department Hdqrs,12.00000000,3 Deadwyler St,,Elberton,Georgia,30635,706.00000000,283-7425,,,13105,Elbert,Fire Station,GPS,
485,FS150034,-82.86390500,34.11064300,Elberton Fire Department,12.00000000,202 Thomas St,,Elberton,Georgia,30635,706.00000000,283-5561,,,13105,Elbert,Fire Station,GPS,
486,FS150032,-82.79952000,34.24027300,Elbert County Fire Department Rock Branch Station,12.00000000,2870 Rock Branch Rd,,Elberton,Georgia,30635,706.00000000,283-7425,,,13105,Elbert,Fire Station,GPS,
487,FS150026,-82.88973800,34.19552100,Elbert County Fire Department Centervill Station,12.00000000,Rt 3,,Elberton,Georgia,30635,706.00000000,283-7425,,,13105,Elbert,Fire Station,GPS,
488,FS150025,-83.03036700,34.20515100,Elbert County Fire Department Bowman Station,12.00000000,12 Broad St,,Bowman,Georgia,30624,706.00000000,283-7425,,,13105,Elbert,Fire Station,GPS,
489,FS150027,-82.97475800,34.14581400,Elbert County Fire Department Deep Creek Station,12.00000000,2243 Nickville Rd,,Dewy Rose,Georgia,30634,706.00000000,283-7425,,,13105,Elbert,Fire Station,GPS,
490,FS150013,-83.03290000,34.04391300,Carlton Volunteer Fire Department,12.00000000,7th St,,Carlton,Georgia,30627,706.00000000,797-3501,,,13195,Madison,Fire Station,GPS,
491,FS150053,-83.43162500,33.68599200,Morgan County Fire Department Station 01,12.00000000,4930 Lower Apalaachee Rd,,Madison,Georgia,30650,706.00000000,342-2273,,,13211,Morgan,Fire Station,GPS,
492,FS150056,-83.36437300,33.57088900,Morgan County Fire Department Station 04,12.00000000,4725 Buckhead Rd,Post Office Box 123,Buckhead,Georgia,30625,706.00000000,342-0649,,,13211,Morgan,Fire Station,GPS,
493,FS150049,-83.46666800,33.59642500,Madison Fire Department,12.00000000,1 High St,Post Office Box 32,Madison,Georgia,30650,706.00000000,342-1251,,,13211,Morgan,Fire Station,GPS,
494,FS150059,-83.46569200,33.59599600,Morgan County Fire Department,12.00000000,380 Hancock St,,Madison,Georgia,30650,706.00000000,342-2459,,,13211,Morgan,Fire Station,GPS,
495,FS150120,-83.50282100,33.59142700,West Morgan Volunteer Fire Department,12.00000000,1241 Brooks Rd,,Madison,Georgia,30650,706.00000000,342-0584,,,13211,Morgan,Fire Station,GPS,
496,FS150061,-83.61190900,33.62630200,Morgan County Fire Department Station 09,12.00000000,118 Martha Ln,,Rutledge,Georgia,30663,706.00000000,557-2763,,,13211,Morgan,Fire Station,GPS,
497,FS150058,-83.58230900,33.68730400,Morgan County Fire Department Station 06,12.00000000,3521 Prospect Rd,,Rutledge,Georgia,30663,706.00000000,342-2344,,,13211,Morgan,Fire Station,GPS,
498,FS152009,-83.55166300,33.76032900,GA Forestry Commission - Morgan-Walton,12.00000000,5051 Highway 83,,Good Hope,Georgia,30641,770.00000000,207-4204,Butch Malcom,,13297,Walton,Fire Station,GPS,
499,FS150041,-83.29256100,34.01266100,Hull Volunteer Fire Department,12.00000000,Glen Carie Rd,Post Office Box 257,Hull,Georgia,30646,706.00000000,795-2300,,,13195,Madison,Fire Station,GPS,
500,FS150016,-83.21518000,34.04027500,Colbert Volunteer Fire Department,12.00000000,270 N 3rd St,Post Office Box 481,Colbert,Georgia,30628,706.00000000,788-2443,,,13195,Madison,Fire Station,GPS,
501,FS150018,-83.12483300,34.06644700,Comer Volunteer Fire Department,12.00000000,201 Laurel Ave,Post Office Box 445,Comer,Georgia,30629,706.00000000,783-5739,,,13195,Madison,Fire Station,GPS,
502,FS150017,-83.10294800,34.13697900,Collins District Volunteer Fire Department,12.00000000,Hwy 172 North,Post Office Box 531,Comer,Georgia,30629,706.00000000,783-3431,,,13195,Madison,Fire Station,GPS,
503,FS150023,-83.22206700,34.12596400,Danielsville Community Volunteer Fire Department,12.00000000,175 Government Ln,,Danielsville,Georgia,30633,706.00000000,795-3380,,,13195,Madison,Fire Station,GPS,
504,FS152008,-83.23835400,34.14434800,GA Forestry Commission - Madison,12.00000000,Smokey Bear Ln,Route 1 Box 1096,Danielsville,Georgia,30633,706.00000000,745-2177,Jerry Bridges,,13195,Madison,Fire Station,GPS,
505,FS150039,-83.12115400,34.22933700,Harrison Volunteer Fire Department,12.00000000,Hwy 281 North,,Royston,Georgia,30662,706.00000000,245-5981,,,13195,Madison,Fire Station,GPS,
506,FS150097,-83.22801600,34.21683600,Shiloh Volunteer Fire Department,12.00000000,Jones Chapel Shiloh Rd,,Danielsville,Georgia,30633,706.00000000,795-3489,,,13195,Madison,Fire Station,GPS,
507,FS150091,-83.28271000,34.19849000,Poca Volunteer Fire Department,12.00000000,3105 Friendship Church Rd,,Danielsville,Georgia,30633,706.00000000,789-2691,,,13195,Madison,Fire Station,GPS,
508,FS150042,-83.29141500,34.17186900,Ila Volunteer Fire Department,12.00000000,5211 Danielsville St,,Ila,Georgia,30647,706.00000000,789-2244,,,13195,Madison,Fire Station,GPS,
509,FS152007,-83.35366300,34.07514700,Neese/Sanford Fire Dept Station 2,12.00000000,Nowhere Rd,Route 1 box 311A,Hull,Georgia,30646,706.00000000,543-3864,William Carithers,,13195,Madison,Fire Station,GPS,
510,FS150063,-83.31611800,34.07719700,Neese Sanford Fire Department,12.00000000,217 Hwy 106 North,,Hull,Georgia,30646,706.00000000,543-3864,,,13195,Madison,Fire Station,GPS,
511,FS152006,-83.41772500,34.05433000,Nicholson Area Fire District Station 2,12.00000000,Pittman Hill Rd,,Center,Georgia,30565,706.00000000,757-3912,Mike Wood,,13157,Jackson,Fire Station,GPS,
512,FS150073,-83.43437200,34.10883800,Nicholson Area Volunteer Fire Department,12.00000000,5460 US Hwy 441 S,,Nicholson,Georgia,30565,706.00000000,757-3912,,,13157,Jackson,Fire Station,GPS,
513,FS150019,-83.45473400,34.20066800,Commerce Fire Department,12.00000000,1491 S Elm St,Post Office Box 414,Commerce,Georgia,30529,706.00000000,335-2190,,,13157,Jackson,Fire Station,GPS,
514,FS150089,-83.62967800,34.21996500,Plainview Volunteer Fire Department,12.00000000,4346 Plainview Rd,,Maysville,Georgia,30558,770.00000000,536-5467,,,13157,Jackson,Fire Station,GPS,
515,FS150075,-83.72072800,34.18480700,North Jackson Fire Department Station 02,12.00000000,525 Main St,Post Office Box 126,Talmo,Georgia,30575,706.00000000,693-4211,,,13157,Jackson,Fire Station,GPS,
516,FS150074,-83.67787800,34.16231400,North Jackson Fire Department Station 01,12.00000000,22 Rail Rd St,,Pendergrass,Georgia,30567,706.00000000,367-1911,,,13157,Jackson,Fire Station,GPS,
517,FS150007,-83.45338600,33.93990500,Athens-Clarke County Fire Department Station 02,12.00000000,3500 Atlanta Hwy,,Athens,Georgia,30606,706.00000000,543-2213,,,13059,Clarke,Fire Station,GPS,
518,FS150037,-83.32459600,33.62635200,Greshamville Fire Department,12.00000000,1430 Reid Duvall Rd,,Madison,Georgia,30650,706.00000000,453-4747,,,13133,Greene,Fire Station,GPS,
519,FS152011,-83.07037100,33.58053300,GA Forestry Commission,12.00000000,2301 Hwy 77 S,,Greensboro,Georgia,30642,706.00000000,486-2466,Johnny Smith,,13133,Greene,Fire Station,GPS,
520,FS150104,-83.07534300,33.61453200,Union Point Fire Department,12.00000000,207 Comfort St,,Union Point,Georgia,30669,706.00000000,486-4102,,,13133,Greene,Fire Station,GPS,
521,FS150126,-83.10104100,33.67271900,Woodville Volunteer Fire Department,12.00000000,N Chestnut St,,Woodville,Georgia,30669,706.00000000,453-4747,,,13133,Greene,Fire Station,GPS,
522,CM150001,-83.37695300,33.95989700,Clarke County Marshal's Office,18.00000000,150 E Hancock St,,Athens,Georgia,30601,706.00000000,354-2660,David Cholet,Chief Marshal,13059,Clarke,Marshalls' Office,GPS,
523,SO150006,-83.22153400,34.12543300,Madison County Sheriff's Office,21.00000000,700 Government Dr,Post Office Box 65,Danielsville,Georgia,30633,706.00000000,795-2617,Jack Fortson,Sheriff,13195,Madison,Sheriffs' Office,GPS,
524,SO150008,-83.86130000,33.59892700,Newton County Sheriff's Office,21.00000000,1154 Stallings St,,Covington,Georgia,30209,770.00000000,784-2105,Gerald Malcom,Sheriff,13217,Newton,Sheriffs' Office,GPS,
525,SO150002,-83.37446800,33.95975900,Clarke County Sheriff's Office,21.00000000,325 E Washington St,,Athens,Georgia,30601,706.00000000,613-3250,Jerry Massey,Sheriff,13059,Clarke,Sheriffs' Office,GPS,
526,SO150009,-83.41575600,33.86753000,Oconee County Sheriff's Office,21.00000000,1140 Experiment Station Rd,Post Office Box 397,Watkinsville,Georgia,30677,706.00000000,769-5665,Scott Berry,Sheriff,13219,Oconee,Sheriffs' Office,GPS,
527,SO150007,-83.45084500,33.62684500,Morgan County Sheriff's Office,21.00000000,2380 Athens Hwy,,Madison,Georgia,30650,706.00000000,342-1507,Ken Pritchett,Sheriff,13211,Morgan,Sheriffs' Office,GPS,
528,SO150004,-83.18111400,33.57672400,Greene County Sheriff's Office,21.00000000,102 N East St,,Greensboro,Georgia,30642,706.00000000,453-3351,Ricky Brown,Sheriff,13133,Greene,Sheriffs' Office,GPS,
529,SO150010,-83.11304800,33.87014700,Oglethorpe County Sheriff's Office,21.00000000,Main St,Post Office Box 17,Lexington,Georgia,30648,706.00000000,743-8101,William Sanders,Sheriff,13221,Oglethorpe,Sheriffs' Office,GPS,
530,SO150003,-82.87004900,34.10980500,Elbert County Sheriff's Office,21.00000000,36 W Church St,,Elberton,Georgia,30635,706.00000000,283-2420,Rollins Skelton,Sheriff,13105,Elbert,Sheriffs' Office,GPS,
531,SO150005,-83.55607400,34.14478400,Jackson County Sheriff's Office,21.00000000,268 Curtis Spence Dr,Post Office Box 98,Jefferson,Georgia,30549,706.00000000,367-5228,Stan Evans,Sheriff,13157,Jackson,Sheriffs' Office,GPS,
532,FS080073,-83.77179200,34.26337000,Hall County Fire and EMS Station 01,12.00000000,2460 Athens Hwy,,Gainesville,Georgia,30507,770.00000000,531-6838,,,13139,Hall,Fire Station,GPS,
533,FS080079,-83.78997500,34.31430500,Hall County Fire and EMS Station 07,12.00000000,731 E Crescent Dr,,Gainesville,Georgia,30501,770.00000000,531-6838,,,13139,Hall,Fire Station,GPS,
534,FS080044,-83.85885900,34.35814700,Gainesville Fire Department Station 03,12.00000000,3335 Nancy Creek Rd,,Gainesville,Georgia,30501,770.00000000,534-3612,,,13139,Hall,Fire Station,GPS,
535,FS080075,-83.89699800,34.37674400,Hall County Fire and EMS Station 03,12.00000000,4104 Short Rd,,Gainesville,Georgia,30506,770.00000000,531-6838,,,13139,Hall,Fire Station,GPS,
536,FS080074,-83.80453900,34.44587900,Hall County Fire and EMS Station 02,12.00000000,5872 Brookton-Lula Rd,,Clermont,Georgia,30527,770.00000000,531-6838,,,13139,Hall,Fire Station,GPS,
537,FS080078,-83.69482300,34.39877800,Hall County Fire and EMS Station 06,12.00000000,6170 Lula Rd,,Lula,Georgia,30554,770.00000000,531-6838,,,13139,Hall,Fire Station,GPS,
538,FS080076,-83.88330200,34.27434500,Hall County Fire and EMS Station 04,12.00000000,2940 McEver Rd,,Gainesville,Georgia,30504,770.00000000,531-6838,,,13139,Hall,Fire Station,GPS,
539,FS080077,-83.89081300,34.19476800,Hall County Fire and EMS Station 05,12.00000000,4245 Atlanta Hwy,,Flowery Branch,Georgia,30542,770.00000000,531-6838,,,13139,Hall,Fire Station,GPS,
540,FS080080,-83.95222900,34.16878400,Hall County Fire and Rescue Station 08,12.00000000,6175 Gaines Ferry Rd,,Flowery Branch,Georgia,30542,770.00000000,531-6838,,,13139,Hall,Fire Station,GPS,
541,FS080129,-83.72548300,34.85050500,Towns County Volunteer Fire Department Station 05,12.00000000,Hwy 75,,Hiawassee,Georgia,30546,706.00000000,379-3807,,,13281,Towns,Fire Station,GPS,
542,FS080128,-83.64370300,34.92746400,Towns County Volunteer Fire Department Station 04,12.00000000,Hwy 76,,Hiawassee,Georgia,30546,706.00000000,379-3807,,,13281,Towns,Fire Station,GPS,
543,FS080127,-83.76685700,34.88728400,Towns County Volunteer Fire Department Station 03,12.00000000,569 Bald Mtn Park Rd,,Hiawassee,Georgia,30546,706.00000000,379-3807,,,13281,Towns,Fire Station,GPS,
